[
    {
        "line": "central",
        "locations": [
            {
                "lon": 0.113767,
                "lat": 51.69368,
                "natpan_id": "940GZZLUEPG",
                "name": "Epping Underground Station"
            },
            {
                "lon": 0.103085,
                "lat": 51.671759,
                "natpan_id": "940GZZLUTHB",
                "name": "Theydon Bois Underground Station"
            },
            {
                "lon": 0.083782,
                "lat": 51.645386,
                "natpan_id": "940GZZLUDBN",
                "name": "Debden Underground Station"
            },
            {
                "lon": 0.055476,
                "lat": 51.641443,
                "natpan_id": "940GZZLULGN",
                "name": "Loughton Underground Station"
            },
            {
                "lon": 0.046757,
                "lat": 51.626605,
                "natpan_id": "940GZZLUBKH",
                "name": "Buckhurst Hill Underground Station"
            },
            {
                "lon": 0.03397,
                "lat": 51.606899,
                "natpan_id": "940GZZLUWOF",
                "name": "Woodford Underground Station"
            },
            {
                "lon": 0.027338,
                "lat": 51.591907,
                "natpan_id": "940GZZLUSWF",
                "name": "South Woodford Underground Station"
            },
            {
                "lon": 0.02144,
                "lat": 51.580678,
                "natpan_id": "940GZZLUSNB",
                "name": "Snaresbrook Underground Station"
            },
            {
                "lon": 0.008194,
                "lat": 51.568324,
                "natpan_id": "940GZZLULYS",
                "name": "Leytonstone Underground Station"
            },
            {
                "lon": -0.005523,
                "lat": 51.556589,
                "natpan_id": "940GZZLULYN",
                "name": "Leyton Underground Station"
            },
            {
                "lon": 51.541806,
                "lat": -0.003458
            },
            {
                "lon": -0.03364,
                "lat": 51.525122,
                "natpan_id": "940GZZLUMED",
                "name": "Mile End Underground Station"
            },
            {
                "lon": -0.055506,
                "lat": 51.527222,
                "natpan_id": "940GZZLUBLG",
                "name": "Bethnal Green Underground Station"
            },
            {
                "lon": 51.517372,
                "lat": -0.083182
            },
            {
                "lon": 51.513552,
                "lat": -0.088919
            },
            {
                "lon": -0.097567,
                "lat": 51.514936,
                "natpan_id": "940GZZLUSPU",
                "name": "St. Paul's Underground Station"
            },
            {
                "lon": -0.111583,
                "lat": 51.518247,
                "natpan_id": "940GZZLUCHL",
                "name": "Chancery Lane Underground Station"
            },
            {
                "lon": -0.120475,
                "lat": 51.51758,
                "natpan_id": "940GZZLUHBN",
                "name": "Holborn Underground Station"
            },
            {
                "lon": 51.516426,
                "lat": -0.13041
            },
            {
                "lon": -0.141903,
                "lat": 51.515224,
                "natpan_id": "940GZZLUOXC",
                "name": "Oxford Circus Underground Station"
            },
            {
                "lon": 51.514304,
                "lat": -0.149723
            },
            {
                "lon": -0.158953,
                "lat": 51.513424,
                "natpan_id": "940GZZLUMBA",
                "name": "Marble Arch Underground Station"
            },
            {
                "lon": -0.175494,
                "lat": 51.511723,
                "natpan_id": "940GZZLULGT",
                "name": "Lancaster Gate Underground Station"
            },
            {
                "lon": -0.187152,
                "lat": 51.510312,
                "natpan_id": "940GZZLUQWY",
                "name": "Queensway Underground Station"
            },
            {
                "lon": -0.196104,
                "lat": 51.509128,
                "natpan_id": "940GZZLUNHG",
                "name": "Notting Hill Gate Underground Station"
            },
            {
                "lon": -0.205679,
                "lat": 51.507143,
                "natpan_id": "940GZZLUHPK",
                "name": "Holland Park Underground Station"
            },
            {
                "lon": 51.504376,
                "lat": -0.218813
            },
            {
                "lon": -0.224297,
                "lat": 51.511959,
                "natpan_id": "940GZZLUWCY",
                "name": "White City Underground Station"
            },
            {
                "lon": -0.247248,
                "lat": 51.516612,
                "natpan_id": "940GZZLUEAN",
                "name": "East Acton Underground Station"
            },
            {
                "lon": -0.259755,
                "lat": 51.523524,
                "natpan_id": "940GZZLUNAN",
                "name": "North Acton Underground Station"
            },
            {
                "lon": -0.292704,
                "lat": 51.530177,
                "natpan_id": "940GZZLUHGR",
                "name": "Hanger Lane Underground Station"
            },
            {
                "lon": -0.323446,
                "lat": 51.536717,
                "natpan_id": "940GZZLUPVL",
                "name": "Perivale Underground Station"
            },
            {
                "lon": 51.542424,
                "lat": -0.34605
            },
            {
                "lon": -0.368699,
                "lat": 51.548236,
                "natpan_id": "940GZZLUNHT",
                "name": "Northolt Underground Station"
            },
            {
                "lon": 51.556853,
                "lat": -0.398915
            },
            {
                "lon": -0.41071,
                "lat": 51.560736,
                "natpan_id": "940GZZLURSG",
                "name": "Ruislip Gardens Underground Station"
            },
            {
                "lon": 51.569688,
                "lat": -0.437886
            }
        ]
    },
    {
        "line": "central",
        "locations": [
            {
                "lon": 51.569688,
                "lat": -0.437886
            },
            {
                "lon": -0.41071,
                "lat": 51.560736,
                "natpan_id": "940GZZLURSG",
                "name": "Ruislip Gardens Underground Station"
            },
            {
                "lon": 51.556853,
                "lat": -0.398915
            },
            {
                "lon": -0.368699,
                "lat": 51.548236,
                "natpan_id": "940GZZLUNHT",
                "name": "Northolt Underground Station"
            },
            {
                "lon": 51.542424,
                "lat": -0.34605
            },
            {
                "lon": -0.323446,
                "lat": 51.536717,
                "natpan_id": "940GZZLUPVL",
                "name": "Perivale Underground Station"
            },
            {
                "lon": -0.292704,
                "lat": 51.530177,
                "natpan_id": "940GZZLUHGR",
                "name": "Hanger Lane Underground Station"
            },
            {
                "lon": -0.259755,
                "lat": 51.523524,
                "natpan_id": "940GZZLUNAN",
                "name": "North Acton Underground Station"
            },
            {
                "lon": -0.247248,
                "lat": 51.516612,
                "natpan_id": "940GZZLUEAN",
                "name": "East Acton Underground Station"
            },
            {
                "lon": -0.224297,
                "lat": 51.511959,
                "natpan_id": "940GZZLUWCY",
                "name": "White City Underground Station"
            },
            {
                "lon": 51.504376,
                "lat": -0.218813
            },
            {
                "lon": -0.205679,
                "lat": 51.507143,
                "natpan_id": "940GZZLUHPK",
                "name": "Holland Park Underground Station"
            },
            {
                "lon": -0.196104,
                "lat": 51.509128,
                "natpan_id": "940GZZLUNHG",
                "name": "Notting Hill Gate Underground Station"
            },
            {
                "lon": -0.187152,
                "lat": 51.510312,
                "natpan_id": "940GZZLUQWY",
                "name": "Queensway Underground Station"
            },
            {
                "lon": -0.175494,
                "lat": 51.511723,
                "natpan_id": "940GZZLULGT",
                "name": "Lancaster Gate Underground Station"
            },
            {
                "lon": -0.158953,
                "lat": 51.513424,
                "natpan_id": "940GZZLUMBA",
                "name": "Marble Arch Underground Station"
            },
            {
                "lon": 51.514304,
                "lat": -0.149723
            },
            {
                "lon": -0.141903,
                "lat": 51.515224,
                "natpan_id": "940GZZLUOXC",
                "name": "Oxford Circus Underground Station"
            },
            {
                "lon": 51.516426,
                "lat": -0.13041
            },
            {
                "lon": -0.120475,
                "lat": 51.51758,
                "natpan_id": "940GZZLUHBN",
                "name": "Holborn Underground Station"
            },
            {
                "lon": -0.111583,
                "lat": 51.518247,
                "natpan_id": "940GZZLUCHL",
                "name": "Chancery Lane Underground Station"
            },
            {
                "lon": -0.097567,
                "lat": 51.514936,
                "natpan_id": "940GZZLUSPU",
                "name": "St. Paul's Underground Station"
            },
            {
                "lon": 51.513552,
                "lat": -0.088919
            },
            {
                "lon": 51.517372,
                "lat": -0.083182
            },
            {
                "lon": -0.055506,
                "lat": 51.527222,
                "natpan_id": "940GZZLUBLG",
                "name": "Bethnal Green Underground Station"
            },
            {
                "lon": -0.03364,
                "lat": 51.525122,
                "natpan_id": "940GZZLUMED",
                "name": "Mile End Underground Station"
            },
            {
                "lon": 51.541806,
                "lat": -0.003458
            },
            {
                "lon": -0.005523,
                "lat": 51.556589,
                "natpan_id": "940GZZLULYN",
                "name": "Leyton Underground Station"
            },
            {
                "lon": 0.008194,
                "lat": 51.568324,
                "natpan_id": "940GZZLULYS",
                "name": "Leytonstone Underground Station"
            },
            {
                "lon": 0.02144,
                "lat": 51.580678,
                "natpan_id": "940GZZLUSNB",
                "name": "Snaresbrook Underground Station"
            },
            {
                "lon": 0.027338,
                "lat": 51.591907,
                "natpan_id": "940GZZLUSWF",
                "name": "South Woodford Underground Station"
            },
            {
                "lon": 0.03397,
                "lat": 51.606899,
                "natpan_id": "940GZZLUWOF",
                "name": "Woodford Underground Station"
            },
            {
                "lon": 0.046757,
                "lat": 51.626605,
                "natpan_id": "940GZZLUBKH",
                "name": "Buckhurst Hill Underground Station"
            },
            {
                "lon": 0.055476,
                "lat": 51.641443,
                "natpan_id": "940GZZLULGN",
                "name": "Loughton Underground Station"
            },
            {
                "lon": 0.083782,
                "lat": 51.645386,
                "natpan_id": "940GZZLUDBN",
                "name": "Debden Underground Station"
            },
            {
                "lon": 0.103085,
                "lat": 51.671759,
                "natpan_id": "940GZZLUTHB",
                "name": "Theydon Bois Underground Station"
            },
            {
                "lon": 0.113767,
                "lat": 51.69368,
                "natpan_id": "940GZZLUEPG",
                "name": "Epping Underground Station"
            }
        ]
    },
    {
        "line": "central",
        "locations": [
            {
                "lon": 0.093482,
                "lat": 51.603659,
                "natpan_id": "940GZZLUHLT",
                "name": "Hainault Underground Station"
            },
            {
                "lon": 0.091004,
                "lat": 51.595618,
                "natpan_id": "940GZZLUFLP",
                "name": "Fairlop Underground Station"
            },
            {
                "lon": 0.088585,
                "lat": 51.585689,
                "natpan_id": "940GZZLUBKE",
                "name": "Barkingside Underground Station"
            },
            {
                "lon": 0.090004,
                "lat": 51.575726,
                "natpan_id": "940GZZLUNBP",
                "name": "Newbury Park Underground Station"
            },
            {
                "lon": 0.066185,
                "lat": 51.576544,
                "natpan_id": "940GZZLUGTH",
                "name": "Gants Hill Underground Station"
            },
            {
                "lon": 0.04536,
                "lat": 51.576243,
                "natpan_id": "940GZZLURBG",
                "name": "Redbridge Underground Station"
            },
            {
                "lon": 0.028527,
                "lat": 51.575501,
                "natpan_id": "940GZZLUWSD",
                "name": "Wanstead Underground Station"
            },
            {
                "lon": 0.008194,
                "lat": 51.568324,
                "natpan_id": "940GZZLULYS",
                "name": "Leytonstone Underground Station"
            },
            {
                "lon": -0.005523,
                "lat": 51.556589,
                "natpan_id": "940GZZLULYN",
                "name": "Leyton Underground Station"
            },
            {
                "lon": 51.541806,
                "lat": -0.003458
            },
            {
                "lon": -0.03364,
                "lat": 51.525122,
                "natpan_id": "940GZZLUMED",
                "name": "Mile End Underground Station"
            },
            {
                "lon": -0.055506,
                "lat": 51.527222,
                "natpan_id": "940GZZLUBLG",
                "name": "Bethnal Green Underground Station"
            },
            {
                "lon": 51.517372,
                "lat": -0.083182
            },
            {
                "lon": 51.513552,
                "lat": -0.088919
            },
            {
                "lon": -0.097567,
                "lat": 51.514936,
                "natpan_id": "940GZZLUSPU",
                "name": "St. Paul's Underground Station"
            },
            {
                "lon": -0.111583,
                "lat": 51.518247,
                "natpan_id": "940GZZLUCHL",
                "name": "Chancery Lane Underground Station"
            },
            {
                "lon": -0.120475,
                "lat": 51.51758,
                "natpan_id": "940GZZLUHBN",
                "name": "Holborn Underground Station"
            },
            {
                "lon": 51.516426,
                "lat": -0.13041
            },
            {
                "lon": -0.141903,
                "lat": 51.515224,
                "natpan_id": "940GZZLUOXC",
                "name": "Oxford Circus Underground Station"
            },
            {
                "lon": 51.514304,
                "lat": -0.149723
            },
            {
                "lon": -0.158953,
                "lat": 51.513424,
                "natpan_id": "940GZZLUMBA",
                "name": "Marble Arch Underground Station"
            },
            {
                "lon": -0.175494,
                "lat": 51.511723,
                "natpan_id": "940GZZLULGT",
                "name": "Lancaster Gate Underground Station"
            },
            {
                "lon": -0.187152,
                "lat": 51.510312,
                "natpan_id": "940GZZLUQWY",
                "name": "Queensway Underground Station"
            },
            {
                "lon": -0.196104,
                "lat": 51.509128,
                "natpan_id": "940GZZLUNHG",
                "name": "Notting Hill Gate Underground Station"
            },
            {
                "lon": -0.205679,
                "lat": 51.507143,
                "natpan_id": "940GZZLUHPK",
                "name": "Holland Park Underground Station"
            },
            {
                "lon": 51.504376,
                "lat": -0.218813
            },
            {
                "lon": -0.224297,
                "lat": 51.511959,
                "natpan_id": "940GZZLUWCY",
                "name": "White City Underground Station"
            },
            {
                "lon": -0.247248,
                "lat": 51.516612,
                "natpan_id": "940GZZLUEAN",
                "name": "East Acton Underground Station"
            },
            {
                "lon": -0.259755,
                "lat": 51.523524,
                "natpan_id": "940GZZLUNAN",
                "name": "North Acton Underground Station"
            },
            {
                "lon": -0.292704,
                "lat": 51.530177,
                "natpan_id": "940GZZLUHGR",
                "name": "Hanger Lane Underground Station"
            },
            {
                "lon": -0.323446,
                "lat": 51.536717,
                "natpan_id": "940GZZLUPVL",
                "name": "Perivale Underground Station"
            },
            {
                "lon": 51.542424,
                "lat": -0.34605
            },
            {
                "lon": -0.368699,
                "lat": 51.548236,
                "natpan_id": "940GZZLUNHT",
                "name": "Northolt Underground Station"
            },
            {
                "lon": 51.556853,
                "lat": -0.398915
            },
            {
                "lon": -0.41071,
                "lat": 51.560736,
                "natpan_id": "940GZZLURSG",
                "name": "Ruislip Gardens Underground Station"
            },
            {
                "lon": 51.569688,
                "lat": -0.437886
            }
        ]
    },
    {
        "line": "central",
        "locations": [
            {
                "lon": 0.093482,
                "lat": 51.603659,
                "natpan_id": "940GZZLUHLT",
                "name": "Hainault Underground Station"
            },
            {
                "lon": 0.092066,
                "lat": 51.613378,
                "natpan_id": "940GZZLUGGH",
                "name": "Grange Hill Underground Station"
            },
            {
                "lon": 0.075041,
                "lat": 51.617916,
                "natpan_id": "940GZZLUCWL",
                "name": "Chigwell Underground Station"
            },
            {
                "lon": 0.043647,
                "lat": 51.617199,
                "natpan_id": "940GZZLURVY",
                "name": "Roding Valley Underground Station"
            },
            {
                "lon": 0.03397,
                "lat": 51.606899,
                "natpan_id": "940GZZLUWOF",
                "name": "Woodford Underground Station"
            },
            {
                "lon": 0.027338,
                "lat": 51.591907,
                "natpan_id": "940GZZLUSWF",
                "name": "South Woodford Underground Station"
            },
            {
                "lon": 0.02144,
                "lat": 51.580678,
                "natpan_id": "940GZZLUSNB",
                "name": "Snaresbrook Underground Station"
            },
            {
                "lon": 0.008194,
                "lat": 51.568324,
                "natpan_id": "940GZZLULYS",
                "name": "Leytonstone Underground Station"
            },
            {
                "lon": -0.005523,
                "lat": 51.556589,
                "natpan_id": "940GZZLULYN",
                "name": "Leyton Underground Station"
            },
            {
                "lon": 51.541806,
                "lat": -0.003458
            },
            {
                "lon": -0.03364,
                "lat": 51.525122,
                "natpan_id": "940GZZLUMED",
                "name": "Mile End Underground Station"
            },
            {
                "lon": -0.055506,
                "lat": 51.527222,
                "natpan_id": "940GZZLUBLG",
                "name": "Bethnal Green Underground Station"
            },
            {
                "lon": 51.517372,
                "lat": -0.083182
            },
            {
                "lon": 51.513552,
                "lat": -0.088919
            },
            {
                "lon": -0.097567,
                "lat": 51.514936,
                "natpan_id": "940GZZLUSPU",
                "name": "St. Paul's Underground Station"
            },
            {
                "lon": -0.111583,
                "lat": 51.518247,
                "natpan_id": "940GZZLUCHL",
                "name": "Chancery Lane Underground Station"
            },
            {
                "lon": -0.120475,
                "lat": 51.51758,
                "natpan_id": "940GZZLUHBN",
                "name": "Holborn Underground Station"
            },
            {
                "lon": 51.516426,
                "lat": -0.13041
            },
            {
                "lon": -0.141903,
                "lat": 51.515224,
                "natpan_id": "940GZZLUOXC",
                "name": "Oxford Circus Underground Station"
            },
            {
                "lon": 51.514304,
                "lat": -0.149723
            },
            {
                "lon": -0.158953,
                "lat": 51.513424,
                "natpan_id": "940GZZLUMBA",
                "name": "Marble Arch Underground Station"
            },
            {
                "lon": -0.175494,
                "lat": 51.511723,
                "natpan_id": "940GZZLULGT",
                "name": "Lancaster Gate Underground Station"
            },
            {
                "lon": -0.187152,
                "lat": 51.510312,
                "natpan_id": "940GZZLUQWY",
                "name": "Queensway Underground Station"
            },
            {
                "lon": -0.196104,
                "lat": 51.509128,
                "natpan_id": "940GZZLUNHG",
                "name": "Notting Hill Gate Underground Station"
            },
            {
                "lon": -0.205679,
                "lat": 51.507143,
                "natpan_id": "940GZZLUHPK",
                "name": "Holland Park Underground Station"
            },
            {
                "lon": 51.504376,
                "lat": -0.218813
            },
            {
                "lon": -0.224297,
                "lat": 51.511959,
                "natpan_id": "940GZZLUWCY",
                "name": "White City Underground Station"
            },
            {
                "lon": -0.247248,
                "lat": 51.516612,
                "natpan_id": "940GZZLUEAN",
                "name": "East Acton Underground Station"
            },
            {
                "lon": -0.259755,
                "lat": 51.523524,
                "natpan_id": "940GZZLUNAN",
                "name": "North Acton Underground Station"
            },
            {
                "lon": -0.292704,
                "lat": 51.530177,
                "natpan_id": "940GZZLUHGR",
                "name": "Hanger Lane Underground Station"
            },
            {
                "lon": -0.323446,
                "lat": 51.536717,
                "natpan_id": "940GZZLUPVL",
                "name": "Perivale Underground Station"
            },
            {
                "lon": 51.542424,
                "lat": -0.34605
            },
            {
                "lon": -0.368699,
                "lat": 51.548236,
                "natpan_id": "940GZZLUNHT",
                "name": "Northolt Underground Station"
            },
            {
                "lon": 51.556853,
                "lat": -0.398915
            },
            {
                "lon": -0.41071,
                "lat": 51.560736,
                "natpan_id": "940GZZLURSG",
                "name": "Ruislip Gardens Underground Station"
            },
            {
                "lon": 51.569688,
                "lat": -0.437886
            }
        ]
    },
    {
        "line": "central",
        "locations": [
            {
                "lon": 51.569688,
                "lat": -0.437886
            },
            {
                "lon": -0.41071,
                "lat": 51.560736,
                "natpan_id": "940GZZLURSG",
                "name": "Ruislip Gardens Underground Station"
            },
            {
                "lon": 51.556853,
                "lat": -0.398915
            },
            {
                "lon": -0.368699,
                "lat": 51.548236,
                "natpan_id": "940GZZLUNHT",
                "name": "Northolt Underground Station"
            },
            {
                "lon": 51.542424,
                "lat": -0.34605
            },
            {
                "lon": -0.323446,
                "lat": 51.536717,
                "natpan_id": "940GZZLUPVL",
                "name": "Perivale Underground Station"
            },
            {
                "lon": -0.292704,
                "lat": 51.530177,
                "natpan_id": "940GZZLUHGR",
                "name": "Hanger Lane Underground Station"
            },
            {
                "lon": -0.259755,
                "lat": 51.523524,
                "natpan_id": "940GZZLUNAN",
                "name": "North Acton Underground Station"
            },
            {
                "lon": -0.247248,
                "lat": 51.516612,
                "natpan_id": "940GZZLUEAN",
                "name": "East Acton Underground Station"
            },
            {
                "lon": -0.224297,
                "lat": 51.511959,
                "natpan_id": "940GZZLUWCY",
                "name": "White City Underground Station"
            },
            {
                "lon": 51.504376,
                "lat": -0.218813
            },
            {
                "lon": -0.205679,
                "lat": 51.507143,
                "natpan_id": "940GZZLUHPK",
                "name": "Holland Park Underground Station"
            },
            {
                "lon": -0.196104,
                "lat": 51.509128,
                "natpan_id": "940GZZLUNHG",
                "name": "Notting Hill Gate Underground Station"
            },
            {
                "lon": -0.187152,
                "lat": 51.510312,
                "natpan_id": "940GZZLUQWY",
                "name": "Queensway Underground Station"
            },
            {
                "lon": -0.175494,
                "lat": 51.511723,
                "natpan_id": "940GZZLULGT",
                "name": "Lancaster Gate Underground Station"
            },
            {
                "lon": -0.158953,
                "lat": 51.513424,
                "natpan_id": "940GZZLUMBA",
                "name": "Marble Arch Underground Station"
            },
            {
                "lon": 51.514304,
                "lat": -0.149723
            },
            {
                "lon": -0.141903,
                "lat": 51.515224,
                "natpan_id": "940GZZLUOXC",
                "name": "Oxford Circus Underground Station"
            },
            {
                "lon": 51.516426,
                "lat": -0.13041
            },
            {
                "lon": -0.120475,
                "lat": 51.51758,
                "natpan_id": "940GZZLUHBN",
                "name": "Holborn Underground Station"
            },
            {
                "lon": -0.111583,
                "lat": 51.518247,
                "natpan_id": "940GZZLUCHL",
                "name": "Chancery Lane Underground Station"
            },
            {
                "lon": -0.097567,
                "lat": 51.514936,
                "natpan_id": "940GZZLUSPU",
                "name": "St. Paul's Underground Station"
            },
            {
                "lon": 51.513552,
                "lat": -0.088919
            },
            {
                "lon": 51.517372,
                "lat": -0.083182
            },
            {
                "lon": -0.055506,
                "lat": 51.527222,
                "natpan_id": "940GZZLUBLG",
                "name": "Bethnal Green Underground Station"
            },
            {
                "lon": -0.03364,
                "lat": 51.525122,
                "natpan_id": "940GZZLUMED",
                "name": "Mile End Underground Station"
            },
            {
                "lon": 51.541806,
                "lat": -0.003458
            },
            {
                "lon": -0.005523,
                "lat": 51.556589,
                "natpan_id": "940GZZLULYN",
                "name": "Leyton Underground Station"
            },
            {
                "lon": 0.008194,
                "lat": 51.568324,
                "natpan_id": "940GZZLULYS",
                "name": "Leytonstone Underground Station"
            },
            {
                "lon": 0.028527,
                "lat": 51.575501,
                "natpan_id": "940GZZLUWSD",
                "name": "Wanstead Underground Station"
            },
            {
                "lon": 0.04536,
                "lat": 51.576243,
                "natpan_id": "940GZZLURBG",
                "name": "Redbridge Underground Station"
            },
            {
                "lon": 0.066185,
                "lat": 51.576544,
                "natpan_id": "940GZZLUGTH",
                "name": "Gants Hill Underground Station"
            },
            {
                "lon": 0.090004,
                "lat": 51.575726,
                "natpan_id": "940GZZLUNBP",
                "name": "Newbury Park Underground Station"
            },
            {
                "lon": 0.088585,
                "lat": 51.585689,
                "natpan_id": "940GZZLUBKE",
                "name": "Barkingside Underground Station"
            },
            {
                "lon": 0.091004,
                "lat": 51.595618,
                "natpan_id": "940GZZLUFLP",
                "name": "Fairlop Underground Station"
            },
            {
                "lon": 0.093482,
                "lat": 51.603659,
                "natpan_id": "940GZZLUHLT",
                "name": "Hainault Underground Station"
            }
        ]
    },
    {
        "line": "central",
        "locations": [
            {
                "lon": 0.113767,
                "lat": 51.69368,
                "natpan_id": "940GZZLUEPG",
                "name": "Epping Underground Station"
            },
            {
                "lon": 0.103085,
                "lat": 51.671759,
                "natpan_id": "940GZZLUTHB",
                "name": "Theydon Bois Underground Station"
            },
            {
                "lon": 0.083782,
                "lat": 51.645386,
                "natpan_id": "940GZZLUDBN",
                "name": "Debden Underground Station"
            },
            {
                "lon": 0.055476,
                "lat": 51.641443,
                "natpan_id": "940GZZLULGN",
                "name": "Loughton Underground Station"
            },
            {
                "lon": 0.046757,
                "lat": 51.626605,
                "natpan_id": "940GZZLUBKH",
                "name": "Buckhurst Hill Underground Station"
            },
            {
                "lon": 0.03397,
                "lat": 51.606899,
                "natpan_id": "940GZZLUWOF",
                "name": "Woodford Underground Station"
            },
            {
                "lon": 0.027338,
                "lat": 51.591907,
                "natpan_id": "940GZZLUSWF",
                "name": "South Woodford Underground Station"
            },
            {
                "lon": 0.02144,
                "lat": 51.580678,
                "natpan_id": "940GZZLUSNB",
                "name": "Snaresbrook Underground Station"
            },
            {
                "lon": 0.008194,
                "lat": 51.568324,
                "natpan_id": "940GZZLULYS",
                "name": "Leytonstone Underground Station"
            },
            {
                "lon": -0.005523,
                "lat": 51.556589,
                "natpan_id": "940GZZLULYN",
                "name": "Leyton Underground Station"
            },
            {
                "lon": 51.541806,
                "lat": -0.003458
            },
            {
                "lon": -0.03364,
                "lat": 51.525122,
                "natpan_id": "940GZZLUMED",
                "name": "Mile End Underground Station"
            },
            {
                "lon": -0.055506,
                "lat": 51.527222,
                "natpan_id": "940GZZLUBLG",
                "name": "Bethnal Green Underground Station"
            },
            {
                "lon": 51.517372,
                "lat": -0.083182
            },
            {
                "lon": 51.513552,
                "lat": -0.088919
            },
            {
                "lon": -0.097567,
                "lat": 51.514936,
                "natpan_id": "940GZZLUSPU",
                "name": "St. Paul's Underground Station"
            },
            {
                "lon": -0.111583,
                "lat": 51.518247,
                "natpan_id": "940GZZLUCHL",
                "name": "Chancery Lane Underground Station"
            },
            {
                "lon": -0.120475,
                "lat": 51.51758,
                "natpan_id": "940GZZLUHBN",
                "name": "Holborn Underground Station"
            },
            {
                "lon": 51.516426,
                "lat": -0.13041
            },
            {
                "lon": -0.141903,
                "lat": 51.515224,
                "natpan_id": "940GZZLUOXC",
                "name": "Oxford Circus Underground Station"
            },
            {
                "lon": 51.514304,
                "lat": -0.149723
            },
            {
                "lon": -0.158953,
                "lat": 51.513424,
                "natpan_id": "940GZZLUMBA",
                "name": "Marble Arch Underground Station"
            },
            {
                "lon": -0.175494,
                "lat": 51.511723,
                "natpan_id": "940GZZLULGT",
                "name": "Lancaster Gate Underground Station"
            },
            {
                "lon": -0.187152,
                "lat": 51.510312,
                "natpan_id": "940GZZLUQWY",
                "name": "Queensway Underground Station"
            },
            {
                "lon": -0.196104,
                "lat": 51.509128,
                "natpan_id": "940GZZLUNHG",
                "name": "Notting Hill Gate Underground Station"
            },
            {
                "lon": -0.205679,
                "lat": 51.507143,
                "natpan_id": "940GZZLUHPK",
                "name": "Holland Park Underground Station"
            },
            {
                "lon": 51.504376,
                "lat": -0.218813
            },
            {
                "lon": -0.224297,
                "lat": 51.511959,
                "natpan_id": "940GZZLUWCY",
                "name": "White City Underground Station"
            },
            {
                "lon": -0.247248,
                "lat": 51.516612,
                "natpan_id": "940GZZLUEAN",
                "name": "East Acton Underground Station"
            },
            {
                "lon": -0.259755,
                "lat": 51.523524,
                "natpan_id": "940GZZLUNAN",
                "name": "North Acton Underground Station"
            },
            {
                "lon": -0.28098,
                "lat": 51.518001,
                "natpan_id": "940GZZLUWTA",
                "name": "West Acton Underground Station"
            },
            {
                "lon": 51.515017,
                "lat": -0.301457
            }
        ]
    },
    {
        "line": "central",
        "locations": [
            {
                "lon": 51.515017,
                "lat": -0.301457
            },
            {
                "lon": -0.28098,
                "lat": 51.518001,
                "natpan_id": "940GZZLUWTA",
                "name": "West Acton Underground Station"
            },
            {
                "lon": -0.259755,
                "lat": 51.523524,
                "natpan_id": "940GZZLUNAN",
                "name": "North Acton Underground Station"
            },
            {
                "lon": -0.247248,
                "lat": 51.516612,
                "natpan_id": "940GZZLUEAN",
                "name": "East Acton Underground Station"
            },
            {
                "lon": -0.224297,
                "lat": 51.511959,
                "natpan_id": "940GZZLUWCY",
                "name": "White City Underground Station"
            },
            {
                "lon": 51.504376,
                "lat": -0.218813
            },
            {
                "lon": -0.205679,
                "lat": 51.507143,
                "natpan_id": "940GZZLUHPK",
                "name": "Holland Park Underground Station"
            },
            {
                "lon": -0.196104,
                "lat": 51.509128,
                "natpan_id": "940GZZLUNHG",
                "name": "Notting Hill Gate Underground Station"
            },
            {
                "lon": -0.187152,
                "lat": 51.510312,
                "natpan_id": "940GZZLUQWY",
                "name": "Queensway Underground Station"
            },
            {
                "lon": -0.175494,
                "lat": 51.511723,
                "natpan_id": "940GZZLULGT",
                "name": "Lancaster Gate Underground Station"
            },
            {
                "lon": -0.158953,
                "lat": 51.513424,
                "natpan_id": "940GZZLUMBA",
                "name": "Marble Arch Underground Station"
            },
            {
                "lon": 51.514304,
                "lat": -0.149723
            },
            {
                "lon": -0.141903,
                "lat": 51.515224,
                "natpan_id": "940GZZLUOXC",
                "name": "Oxford Circus Underground Station"
            },
            {
                "lon": 51.516426,
                "lat": -0.13041
            },
            {
                "lon": -0.120475,
                "lat": 51.51758,
                "natpan_id": "940GZZLUHBN",
                "name": "Holborn Underground Station"
            },
            {
                "lon": -0.111583,
                "lat": 51.518247,
                "natpan_id": "940GZZLUCHL",
                "name": "Chancery Lane Underground Station"
            },
            {
                "lon": -0.097567,
                "lat": 51.514936,
                "natpan_id": "940GZZLUSPU",
                "name": "St. Paul's Underground Station"
            },
            {
                "lon": 51.513552,
                "lat": -0.088919
            },
            {
                "lon": 51.517372,
                "lat": -0.083182
            },
            {
                "lon": -0.055506,
                "lat": 51.527222,
                "natpan_id": "940GZZLUBLG",
                "name": "Bethnal Green Underground Station"
            },
            {
                "lon": -0.03364,
                "lat": 51.525122,
                "natpan_id": "940GZZLUMED",
                "name": "Mile End Underground Station"
            },
            {
                "lon": 51.541806,
                "lat": -0.003458
            },
            {
                "lon": -0.005523,
                "lat": 51.556589,
                "natpan_id": "940GZZLULYN",
                "name": "Leyton Underground Station"
            },
            {
                "lon": 0.008194,
                "lat": 51.568324,
                "natpan_id": "940GZZLULYS",
                "name": "Leytonstone Underground Station"
            },
            {
                "lon": 0.02144,
                "lat": 51.580678,
                "natpan_id": "940GZZLUSNB",
                "name": "Snaresbrook Underground Station"
            },
            {
                "lon": 0.027338,
                "lat": 51.591907,
                "natpan_id": "940GZZLUSWF",
                "name": "South Woodford Underground Station"
            },
            {
                "lon": 0.03397,
                "lat": 51.606899,
                "natpan_id": "940GZZLUWOF",
                "name": "Woodford Underground Station"
            },
            {
                "lon": 0.046757,
                "lat": 51.626605,
                "natpan_id": "940GZZLUBKH",
                "name": "Buckhurst Hill Underground Station"
            },
            {
                "lon": 0.055476,
                "lat": 51.641443,
                "natpan_id": "940GZZLULGN",
                "name": "Loughton Underground Station"
            },
            {
                "lon": 0.083782,
                "lat": 51.645386,
                "natpan_id": "940GZZLUDBN",
                "name": "Debden Underground Station"
            },
            {
                "lon": 0.103085,
                "lat": 51.671759,
                "natpan_id": "940GZZLUTHB",
                "name": "Theydon Bois Underground Station"
            },
            {
                "lon": 0.113767,
                "lat": 51.69368,
                "natpan_id": "940GZZLUEPG",
                "name": "Epping Underground Station"
            }
        ]
    },
    {
        "line": "central",
        "locations": [
            {
                "lon": 0.093482,
                "lat": 51.603659,
                "natpan_id": "940GZZLUHLT",
                "name": "Hainault Underground Station"
            },
            {
                "lon": 0.091004,
                "lat": 51.595618,
                "natpan_id": "940GZZLUFLP",
                "name": "Fairlop Underground Station"
            },
            {
                "lon": 0.088585,
                "lat": 51.585689,
                "natpan_id": "940GZZLUBKE",
                "name": "Barkingside Underground Station"
            },
            {
                "lon": 0.090004,
                "lat": 51.575726,
                "natpan_id": "940GZZLUNBP",
                "name": "Newbury Park Underground Station"
            },
            {
                "lon": 0.066185,
                "lat": 51.576544,
                "natpan_id": "940GZZLUGTH",
                "name": "Gants Hill Underground Station"
            },
            {
                "lon": 0.04536,
                "lat": 51.576243,
                "natpan_id": "940GZZLURBG",
                "name": "Redbridge Underground Station"
            },
            {
                "lon": 0.028527,
                "lat": 51.575501,
                "natpan_id": "940GZZLUWSD",
                "name": "Wanstead Underground Station"
            },
            {
                "lon": 0.008194,
                "lat": 51.568324,
                "natpan_id": "940GZZLULYS",
                "name": "Leytonstone Underground Station"
            },
            {
                "lon": -0.005523,
                "lat": 51.556589,
                "natpan_id": "940GZZLULYN",
                "name": "Leyton Underground Station"
            },
            {
                "lon": 51.541806,
                "lat": -0.003458
            },
            {
                "lon": -0.03364,
                "lat": 51.525122,
                "natpan_id": "940GZZLUMED",
                "name": "Mile End Underground Station"
            },
            {
                "lon": -0.055506,
                "lat": 51.527222,
                "natpan_id": "940GZZLUBLG",
                "name": "Bethnal Green Underground Station"
            },
            {
                "lon": 51.517372,
                "lat": -0.083182
            },
            {
                "lon": 51.513552,
                "lat": -0.088919
            },
            {
                "lon": -0.097567,
                "lat": 51.514936,
                "natpan_id": "940GZZLUSPU",
                "name": "St. Paul's Underground Station"
            },
            {
                "lon": -0.111583,
                "lat": 51.518247,
                "natpan_id": "940GZZLUCHL",
                "name": "Chancery Lane Underground Station"
            },
            {
                "lon": -0.120475,
                "lat": 51.51758,
                "natpan_id": "940GZZLUHBN",
                "name": "Holborn Underground Station"
            },
            {
                "lon": 51.516426,
                "lat": -0.13041
            },
            {
                "lon": -0.141903,
                "lat": 51.515224,
                "natpan_id": "940GZZLUOXC",
                "name": "Oxford Circus Underground Station"
            },
            {
                "lon": 51.514304,
                "lat": -0.149723
            },
            {
                "lon": -0.158953,
                "lat": 51.513424,
                "natpan_id": "940GZZLUMBA",
                "name": "Marble Arch Underground Station"
            },
            {
                "lon": -0.175494,
                "lat": 51.511723,
                "natpan_id": "940GZZLULGT",
                "name": "Lancaster Gate Underground Station"
            },
            {
                "lon": -0.187152,
                "lat": 51.510312,
                "natpan_id": "940GZZLUQWY",
                "name": "Queensway Underground Station"
            },
            {
                "lon": -0.196104,
                "lat": 51.509128,
                "natpan_id": "940GZZLUNHG",
                "name": "Notting Hill Gate Underground Station"
            },
            {
                "lon": -0.205679,
                "lat": 51.507143,
                "natpan_id": "940GZZLUHPK",
                "name": "Holland Park Underground Station"
            },
            {
                "lon": 51.504376,
                "lat": -0.218813
            },
            {
                "lon": -0.224297,
                "lat": 51.511959,
                "natpan_id": "940GZZLUWCY",
                "name": "White City Underground Station"
            },
            {
                "lon": -0.247248,
                "lat": 51.516612,
                "natpan_id": "940GZZLUEAN",
                "name": "East Acton Underground Station"
            },
            {
                "lon": -0.259755,
                "lat": 51.523524,
                "natpan_id": "940GZZLUNAN",
                "name": "North Acton Underground Station"
            },
            {
                "lon": -0.28098,
                "lat": 51.518001,
                "natpan_id": "940GZZLUWTA",
                "name": "West Acton Underground Station"
            },
            {
                "lon": 51.515017,
                "lat": -0.301457
            }
        ]
    },
    {
        "line": "central",
        "locations": [
            {
                "lon": 51.515017,
                "lat": -0.301457
            },
            {
                "lon": -0.28098,
                "lat": 51.518001,
                "natpan_id": "940GZZLUWTA",
                "name": "West Acton Underground Station"
            },
            {
                "lon": -0.259755,
                "lat": 51.523524,
                "natpan_id": "940GZZLUNAN",
                "name": "North Acton Underground Station"
            },
            {
                "lon": -0.247248,
                "lat": 51.516612,
                "natpan_id": "940GZZLUEAN",
                "name": "East Acton Underground Station"
            },
            {
                "lon": -0.224297,
                "lat": 51.511959,
                "natpan_id": "940GZZLUWCY",
                "name": "White City Underground Station"
            },
            {
                "lon": 51.504376,
                "lat": -0.218813
            },
            {
                "lon": -0.205679,
                "lat": 51.507143,
                "natpan_id": "940GZZLUHPK",
                "name": "Holland Park Underground Station"
            },
            {
                "lon": -0.196104,
                "lat": 51.509128,
                "natpan_id": "940GZZLUNHG",
                "name": "Notting Hill Gate Underground Station"
            },
            {
                "lon": -0.187152,
                "lat": 51.510312,
                "natpan_id": "940GZZLUQWY",
                "name": "Queensway Underground Station"
            },
            {
                "lon": -0.175494,
                "lat": 51.511723,
                "natpan_id": "940GZZLULGT",
                "name": "Lancaster Gate Underground Station"
            },
            {
                "lon": -0.158953,
                "lat": 51.513424,
                "natpan_id": "940GZZLUMBA",
                "name": "Marble Arch Underground Station"
            },
            {
                "lon": 51.514304,
                "lat": -0.149723
            },
            {
                "lon": -0.141903,
                "lat": 51.515224,
                "natpan_id": "940GZZLUOXC",
                "name": "Oxford Circus Underground Station"
            },
            {
                "lon": 51.516426,
                "lat": -0.13041
            },
            {
                "lon": -0.120475,
                "lat": 51.51758,
                "natpan_id": "940GZZLUHBN",
                "name": "Holborn Underground Station"
            },
            {
                "lon": -0.111583,
                "lat": 51.518247,
                "natpan_id": "940GZZLUCHL",
                "name": "Chancery Lane Underground Station"
            },
            {
                "lon": -0.097567,
                "lat": 51.514936,
                "natpan_id": "940GZZLUSPU",
                "name": "St. Paul's Underground Station"
            },
            {
                "lon": 51.513552,
                "lat": -0.088919
            },
            {
                "lon": 51.517372,
                "lat": -0.083182
            },
            {
                "lon": -0.055506,
                "lat": 51.527222,
                "natpan_id": "940GZZLUBLG",
                "name": "Bethnal Green Underground Station"
            },
            {
                "lon": -0.03364,
                "lat": 51.525122,
                "natpan_id": "940GZZLUMED",
                "name": "Mile End Underground Station"
            },
            {
                "lon": 51.541806,
                "lat": -0.003458
            },
            {
                "lon": -0.005523,
                "lat": 51.556589,
                "natpan_id": "940GZZLULYN",
                "name": "Leyton Underground Station"
            },
            {
                "lon": 0.008194,
                "lat": 51.568324,
                "natpan_id": "940GZZLULYS",
                "name": "Leytonstone Underground Station"
            },
            {
                "lon": 0.028527,
                "lat": 51.575501,
                "natpan_id": "940GZZLUWSD",
                "name": "Wanstead Underground Station"
            },
            {
                "lon": 0.04536,
                "lat": 51.576243,
                "natpan_id": "940GZZLURBG",
                "name": "Redbridge Underground Station"
            },
            {
                "lon": 0.066185,
                "lat": 51.576544,
                "natpan_id": "940GZZLUGTH",
                "name": "Gants Hill Underground Station"
            },
            {
                "lon": 0.090004,
                "lat": 51.575726,
                "natpan_id": "940GZZLUNBP",
                "name": "Newbury Park Underground Station"
            },
            {
                "lon": 0.088585,
                "lat": 51.585689,
                "natpan_id": "940GZZLUBKE",
                "name": "Barkingside Underground Station"
            },
            {
                "lon": 0.091004,
                "lat": 51.595618,
                "natpan_id": "940GZZLUFLP",
                "name": "Fairlop Underground Station"
            },
            {
                "lon": 0.093482,
                "lat": 51.603659,
                "natpan_id": "940GZZLUHLT",
                "name": "Hainault Underground Station"
            }
        ]
    },
    {
        "line": "central",
        "locations": [
            {
                "lon": 0.03397,
                "lat": 51.606899,
                "natpan_id": "940GZZLUWOF",
                "name": "Woodford Underground Station"
            },
            {
                "lon": 0.043647,
                "lat": 51.617199,
                "natpan_id": "940GZZLURVY",
                "name": "Roding Valley Underground Station"
            },
            {
                "lon": 0.075041,
                "lat": 51.617916,
                "natpan_id": "940GZZLUCWL",
                "name": "Chigwell Underground Station"
            },
            {
                "lon": 0.092066,
                "lat": 51.613378,
                "natpan_id": "940GZZLUGGH",
                "name": "Grange Hill Underground Station"
            },
            {
                "lon": 0.093482,
                "lat": 51.603659,
                "natpan_id": "940GZZLUHLT",
                "name": "Hainault Underground Station"
            }
        ]
    }
]