[
    {
        "line": "district",
        "locations": [
            {
                "lon": 51.559063,
                "lat": 0.250882
            },
            {
                "lon": 0.235809,
                "lat": 51.55856,
                "natpan_id": "940GZZLUUPB",
                "name": "Upminster Bridge Underground Station"
            },
            {
                "lon": 0.219116,
                "lat": 51.554093,
                "natpan_id": "940GZZLUHCH",
                "name": "Hornchurch Underground Station"
            },
            {
                "lon": 0.19864,
                "lat": 51.549775,
                "natpan_id": "940GZZLUEPK",
                "name": "Elm Park Underground Station"
            },
            {
                "lon": 0.166017,
                "lat": 51.544096,
                "natpan_id": "940GZZLUDGE",
                "name": "Dagenham East Underground Station"
            },
            {
                "lon": 0.147527,
                "lat": 51.541639,
                "natpan_id": "940GZZLUDGY",
                "name": "Dagenham Heathway Underground Station"
            },
            {
                "lon": 0.127016,
                "lat": 51.540331,
                "natpan_id": "940GZZLUBEC",
                "name": "Becontree Underground Station"
            },
            {
                "lon": 0.10153,
                "lat": 51.538372,
                "natpan_id": "940GZZLUUPY",
                "name": "Upney Underground Station"
            },
            {
                "lon": 51.539321,
                "lat": 0.081053
            },
            {
                "lon": 0.051186,
                "lat": 51.538948,
                "natpan_id": "940GZZLUEHM",
                "name": "East Ham Underground Station"
            },
            {
                "lon": 0.035263,
                "lat": 51.53534,
                "natpan_id": "940GZZLUUPK",
                "name": "Upton Park Underground Station"
            },
            {
                "lon": 0.017451,
                "lat": 51.531341,
                "natpan_id": "940GZZLUPLW",
                "name": "Plaistow Underground Station"
            },
            {
                "lon": 51.528136,
                "lat": 0.005055
            },
            {
                "lon": -0.011538,
                "lat": 51.524839,
                "natpan_id": "940GZZLUBBB",
                "name": "Bromley-by-Bow Underground Station"
            },
            {
                "lon": -0.025128,
                "lat": 51.52694,
                "natpan_id": "940GZZLUBWR",
                "name": "Bow Road Underground Station"
            },
            {
                "lon": -0.03364,
                "lat": 51.525122,
                "natpan_id": "940GZZLUMED",
                "name": "Mile End Underground Station"
            },
            {
                "lon": -0.046596,
                "lat": 51.521858,
                "natpan_id": "940GZZLUSGN",
                "name": "Stepney Green Underground Station"
            },
            {
                "lon": 51.519518,
                "lat": -0.059971
            },
            {
                "lon": -0.072384,
                "lat": 51.515037,
                "natpan_id": "940GZZLUADE",
                "name": "Aldgate East Underground Station"
            },
            {
                "lon": -0.076546,
                "lat": 51.509971,
                "natpan_id": "940GZZLUTWH",
                "name": "Tower Hill Underground Station"
            },
            {
                "lon": -0.085969,
                "lat": 51.5107,
                "natpan_id": "940GZZLUMMT",
                "name": "Monument Underground Station"
            },
            {
                "lon": 51.51151,
                "lat": -0.090432
            },
            {
                "lon": -0.094009,
                "lat": 51.512117,
                "natpan_id": "940GZZLUMSH",
                "name": "Mansion House Underground Station"
            },
            {
                "lon": 51.511581,
                "lat": -0.103659
            },
            {
                "lon": -0.11426,
                "lat": 51.511006,
                "natpan_id": "940GZZLUTMP",
                "name": "Temple Underground Station"
            },
            {
                "lon": -0.122666,
                "lat": 51.507058,
                "natpan_id": "940GZZLUEMB",
                "name": "Embankment Underground Station"
            },
            {
                "lon": 51.50132,
                "lat": -0.124861
            },
            {
                "lon": -0.133608,
                "lat": 51.499544,
                "natpan_id": "940GZZLUSJP",
                "name": "St. James's Park Underground Station"
            },
            {
                "lon": 51.496359,
                "lat": -0.143102
            },
            {
                "lon": -0.156377,
                "lat": 51.49227,
                "natpan_id": "940GZZLUSSQ",
                "name": "Sloane Square Underground Station"
            },
            {
                "lon": -0.174138,
                "lat": 51.494094,
                "natpan_id": "940GZZLUSKS",
                "name": "South Kensington Underground Station"
            },
            {
                "lon": -0.182658,
                "lat": 51.494316,
                "natpan_id": "940GZZLUGTR",
                "name": "Gloucester Road Underground Station"
            },
            {
                "lon": -0.193378,
                "lat": 51.492063,
                "natpan_id": "940GZZLUECT",
                "name": "Earl's Court Underground Station"
            },
            {
                "lon": -0.206636,
                "lat": 51.490459,
                "natpan_id": "940GZZLUWKN",
                "name": "West Kensington Underground Station"
            },
            {
                "lon": -0.213427,
                "lat": 51.490311,
                "natpan_id": "940GZZLUBSC",
                "name": "Barons Court Underground Station"
            },
            {
                "lon": 51.4923,
                "lat": -0.22362
            },
            {
                "lon": -0.235881,
                "lat": 51.494122,
                "natpan_id": "940GZZLURVP",
                "name": "Ravenscourt Park Underground Station"
            },
            {
                "lon": -0.245704,
                "lat": 51.494917,
                "natpan_id": "940GZZLUSFB",
                "name": "Stamford Brook Underground Station"
            },
            {
                "lon": -0.254555,
                "lat": 51.495148,
                "natpan_id": "940GZZLUTNG",
                "name": "Turnham Green Underground Station"
            },
            {
                "lon": -0.267972,
                "lat": 51.494627,
                "natpan_id": "940GZZLUCWP",
                "name": "Chiswick Park Underground Station"
            },
            {
                "lon": -0.280462,
                "lat": 51.503057,
                "natpan_id": "940GZZLUACT",
                "name": "Acton Town Underground Station"
            },
            {
                "lon": -0.288265,
                "lat": 51.51014,
                "natpan_id": "940GZZLUECM",
                "name": "Ealing Common Underground Station"
            },
            {
                "lon": 51.515017,
                "lat": -0.301457
            }
        ]
    },
    {
        "line": "district",
        "locations": [
            {
                "lon": 51.515017,
                "lat": -0.301457
            },
            {
                "lon": -0.288265,
                "lat": 51.51014,
                "natpan_id": "940GZZLUECM",
                "name": "Ealing Common Underground Station"
            },
            {
                "lon": -0.280462,
                "lat": 51.503057,
                "natpan_id": "940GZZLUACT",
                "name": "Acton Town Underground Station"
            },
            {
                "lon": -0.267972,
                "lat": 51.494627,
                "natpan_id": "940GZZLUCWP",
                "name": "Chiswick Park Underground Station"
            },
            {
                "lon": -0.254555,
                "lat": 51.495148,
                "natpan_id": "940GZZLUTNG",
                "name": "Turnham Green Underground Station"
            },
            {
                "lon": -0.245704,
                "lat": 51.494917,
                "natpan_id": "940GZZLUSFB",
                "name": "Stamford Brook Underground Station"
            },
            {
                "lon": -0.235881,
                "lat": 51.494122,
                "natpan_id": "940GZZLURVP",
                "name": "Ravenscourt Park Underground Station"
            },
            {
                "lon": 51.4923,
                "lat": -0.22362
            },
            {
                "lon": -0.213427,
                "lat": 51.490311,
                "natpan_id": "940GZZLUBSC",
                "name": "Barons Court Underground Station"
            },
            {
                "lon": -0.206636,
                "lat": 51.490459,
                "natpan_id": "940GZZLUWKN",
                "name": "West Kensington Underground Station"
            },
            {
                "lon": -0.193378,
                "lat": 51.492063,
                "natpan_id": "940GZZLUECT",
                "name": "Earl's Court Underground Station"
            },
            {
                "lon": -0.182658,
                "lat": 51.494316,
                "natpan_id": "940GZZLUGTR",
                "name": "Gloucester Road Underground Station"
            },
            {
                "lon": -0.174138,
                "lat": 51.494094,
                "natpan_id": "940GZZLUSKS",
                "name": "South Kensington Underground Station"
            },
            {
                "lon": -0.156377,
                "lat": 51.49227,
                "natpan_id": "940GZZLUSSQ",
                "name": "Sloane Square Underground Station"
            },
            {
                "lon": 51.496359,
                "lat": -0.143102
            },
            {
                "lon": -0.133608,
                "lat": 51.499544,
                "natpan_id": "940GZZLUSJP",
                "name": "St. James's Park Underground Station"
            },
            {
                "lon": 51.50132,
                "lat": -0.124861
            },
            {
                "lon": -0.122666,
                "lat": 51.507058,
                "natpan_id": "940GZZLUEMB",
                "name": "Embankment Underground Station"
            },
            {
                "lon": -0.11426,
                "lat": 51.511006,
                "natpan_id": "940GZZLUTMP",
                "name": "Temple Underground Station"
            },
            {
                "lon": 51.511581,
                "lat": -0.103659
            },
            {
                "lon": -0.094009,
                "lat": 51.512117,
                "natpan_id": "940GZZLUMSH",
                "name": "Mansion House Underground Station"
            },
            {
                "lon": 51.51151,
                "lat": -0.090432
            },
            {
                "lon": -0.085969,
                "lat": 51.5107,
                "natpan_id": "940GZZLUMMT",
                "name": "Monument Underground Station"
            },
            {
                "lon": -0.076546,
                "lat": 51.509971,
                "natpan_id": "940GZZLUTWH",
                "name": "Tower Hill Underground Station"
            },
            {
                "lon": -0.072384,
                "lat": 51.515037,
                "natpan_id": "940GZZLUADE",
                "name": "Aldgate East Underground Station"
            },
            {
                "lon": 51.519518,
                "lat": -0.059971
            },
            {
                "lon": -0.046596,
                "lat": 51.521858,
                "natpan_id": "940GZZLUSGN",
                "name": "Stepney Green Underground Station"
            },
            {
                "lon": -0.03364,
                "lat": 51.525122,
                "natpan_id": "940GZZLUMED",
                "name": "Mile End Underground Station"
            },
            {
                "lon": -0.025128,
                "lat": 51.52694,
                "natpan_id": "940GZZLUBWR",
                "name": "Bow Road Underground Station"
            },
            {
                "lon": -0.011538,
                "lat": 51.524839,
                "natpan_id": "940GZZLUBBB",
                "name": "Bromley-by-Bow Underground Station"
            },
            {
                "lon": 51.528136,
                "lat": 0.005055
            },
            {
                "lon": 0.017451,
                "lat": 51.531341,
                "natpan_id": "940GZZLUPLW",
                "name": "Plaistow Underground Station"
            },
            {
                "lon": 0.035263,
                "lat": 51.53534,
                "natpan_id": "940GZZLUUPK",
                "name": "Upton Park Underground Station"
            },
            {
                "lon": 0.051186,
                "lat": 51.538948,
                "natpan_id": "940GZZLUEHM",
                "name": "East Ham Underground Station"
            },
            {
                "lon": 51.539321,
                "lat": 0.081053
            },
            {
                "lon": 0.10153,
                "lat": 51.538372,
                "natpan_id": "940GZZLUUPY",
                "name": "Upney Underground Station"
            },
            {
                "lon": 0.127016,
                "lat": 51.540331,
                "natpan_id": "940GZZLUBEC",
                "name": "Becontree Underground Station"
            },
            {
                "lon": 0.147527,
                "lat": 51.541639,
                "natpan_id": "940GZZLUDGY",
                "name": "Dagenham Heathway Underground Station"
            },
            {
                "lon": 0.166017,
                "lat": 51.544096,
                "natpan_id": "940GZZLUDGE",
                "name": "Dagenham East Underground Station"
            },
            {
                "lon": 0.19864,
                "lat": 51.549775,
                "natpan_id": "940GZZLUEPK",
                "name": "Elm Park Underground Station"
            },
            {
                "lon": 0.219116,
                "lat": 51.554093,
                "natpan_id": "940GZZLUHCH",
                "name": "Hornchurch Underground Station"
            },
            {
                "lon": 0.235809,
                "lat": 51.55856,
                "natpan_id": "940GZZLUUPB",
                "name": "Upminster Bridge Underground Station"
            },
            {
                "lon": 51.559063,
                "lat": 0.250882
            }
        ]
    },
    {
        "line": "district",
        "locations": [
            {
                "lon": 51.559063,
                "lat": 0.250882
            },
            {
                "lon": 0.235809,
                "lat": 51.55856,
                "natpan_id": "940GZZLUUPB",
                "name": "Upminster Bridge Underground Station"
            },
            {
                "lon": 0.219116,
                "lat": 51.554093,
                "natpan_id": "940GZZLUHCH",
                "name": "Hornchurch Underground Station"
            },
            {
                "lon": 0.19864,
                "lat": 51.549775,
                "natpan_id": "940GZZLUEPK",
                "name": "Elm Park Underground Station"
            },
            {
                "lon": 0.166017,
                "lat": 51.544096,
                "natpan_id": "940GZZLUDGE",
                "name": "Dagenham East Underground Station"
            },
            {
                "lon": 0.147527,
                "lat": 51.541639,
                "natpan_id": "940GZZLUDGY",
                "name": "Dagenham Heathway Underground Station"
            },
            {
                "lon": 0.127016,
                "lat": 51.540331,
                "natpan_id": "940GZZLUBEC",
                "name": "Becontree Underground Station"
            },
            {
                "lon": 0.10153,
                "lat": 51.538372,
                "natpan_id": "940GZZLUUPY",
                "name": "Upney Underground Station"
            },
            {
                "lon": 51.539321,
                "lat": 0.081053
            },
            {
                "lon": 0.051186,
                "lat": 51.538948,
                "natpan_id": "940GZZLUEHM",
                "name": "East Ham Underground Station"
            },
            {
                "lon": 0.035263,
                "lat": 51.53534,
                "natpan_id": "940GZZLUUPK",
                "name": "Upton Park Underground Station"
            },
            {
                "lon": 0.017451,
                "lat": 51.531341,
                "natpan_id": "940GZZLUPLW",
                "name": "Plaistow Underground Station"
            },
            {
                "lon": 51.528136,
                "lat": 0.005055
            },
            {
                "lon": -0.011538,
                "lat": 51.524839,
                "natpan_id": "940GZZLUBBB",
                "name": "Bromley-by-Bow Underground Station"
            },
            {
                "lon": -0.025128,
                "lat": 51.52694,
                "natpan_id": "940GZZLUBWR",
                "name": "Bow Road Underground Station"
            },
            {
                "lon": -0.03364,
                "lat": 51.525122,
                "natpan_id": "940GZZLUMED",
                "name": "Mile End Underground Station"
            },
            {
                "lon": -0.046596,
                "lat": 51.521858,
                "natpan_id": "940GZZLUSGN",
                "name": "Stepney Green Underground Station"
            },
            {
                "lon": 51.519518,
                "lat": -0.059971
            },
            {
                "lon": -0.072384,
                "lat": 51.515037,
                "natpan_id": "940GZZLUADE",
                "name": "Aldgate East Underground Station"
            },
            {
                "lon": -0.076546,
                "lat": 51.509971,
                "natpan_id": "940GZZLUTWH",
                "name": "Tower Hill Underground Station"
            },
            {
                "lon": -0.085969,
                "lat": 51.5107,
                "natpan_id": "940GZZLUMMT",
                "name": "Monument Underground Station"
            },
            {
                "lon": 51.51151,
                "lat": -0.090432
            },
            {
                "lon": -0.094009,
                "lat": 51.512117,
                "natpan_id": "940GZZLUMSH",
                "name": "Mansion House Underground Station"
            },
            {
                "lon": 51.511581,
                "lat": -0.103659
            },
            {
                "lon": -0.11426,
                "lat": 51.511006,
                "natpan_id": "940GZZLUTMP",
                "name": "Temple Underground Station"
            },
            {
                "lon": -0.122666,
                "lat": 51.507058,
                "natpan_id": "940GZZLUEMB",
                "name": "Embankment Underground Station"
            },
            {
                "lon": 51.50132,
                "lat": -0.124861
            },
            {
                "lon": -0.133608,
                "lat": 51.499544,
                "natpan_id": "940GZZLUSJP",
                "name": "St. James's Park Underground Station"
            },
            {
                "lon": 51.496359,
                "lat": -0.143102
            },
            {
                "lon": -0.156377,
                "lat": 51.49227,
                "natpan_id": "940GZZLUSSQ",
                "name": "Sloane Square Underground Station"
            },
            {
                "lon": -0.174138,
                "lat": 51.494094,
                "natpan_id": "940GZZLUSKS",
                "name": "South Kensington Underground Station"
            },
            {
                "lon": -0.182658,
                "lat": 51.494316,
                "natpan_id": "940GZZLUGTR",
                "name": "Gloucester Road Underground Station"
            },
            {
                "lon": -0.193378,
                "lat": 51.492063,
                "natpan_id": "940GZZLUECT",
                "name": "Earl's Court Underground Station"
            },
            {
                "lon": -0.206636,
                "lat": 51.490459,
                "natpan_id": "940GZZLUWKN",
                "name": "West Kensington Underground Station"
            },
            {
                "lon": -0.213427,
                "lat": 51.490311,
                "natpan_id": "940GZZLUBSC",
                "name": "Barons Court Underground Station"
            },
            {
                "lon": 51.4923,
                "lat": -0.22362
            },
            {
                "lon": -0.235881,
                "lat": 51.494122,
                "natpan_id": "940GZZLURVP",
                "name": "Ravenscourt Park Underground Station"
            },
            {
                "lon": -0.245704,
                "lat": 51.494917,
                "natpan_id": "940GZZLUSFB",
                "name": "Stamford Brook Underground Station"
            },
            {
                "lon": -0.254555,
                "lat": 51.495148,
                "natpan_id": "940GZZLUTNG",
                "name": "Turnham Green Underground Station"
            },
            {
                "lon": 51.491803,
                "lat": -0.275267
            },
            {
                "lon": 51.477058,
                "lat": -0.285241
            },
            {
                "lon": 51.463237,
                "lat": -0.301336
            }
        ]
    },
    {
        "line": "district",
        "locations": [
            {
                "lon": 51.463237,
                "lat": -0.301336
            },
            {
                "lon": 51.477058,
                "lat": -0.285241
            },
            {
                "lon": 51.491803,
                "lat": -0.275267
            },
            {
                "lon": -0.254555,
                "lat": 51.495148,
                "natpan_id": "940GZZLUTNG",
                "name": "Turnham Green Underground Station"
            },
            {
                "lon": -0.245704,
                "lat": 51.494917,
                "natpan_id": "940GZZLUSFB",
                "name": "Stamford Brook Underground Station"
            },
            {
                "lon": -0.235881,
                "lat": 51.494122,
                "natpan_id": "940GZZLURVP",
                "name": "Ravenscourt Park Underground Station"
            },
            {
                "lon": 51.4923,
                "lat": -0.22362
            },
            {
                "lon": -0.213427,
                "lat": 51.490311,
                "natpan_id": "940GZZLUBSC",
                "name": "Barons Court Underground Station"
            },
            {
                "lon": -0.206636,
                "lat": 51.490459,
                "natpan_id": "940GZZLUWKN",
                "name": "West Kensington Underground Station"
            },
            {
                "lon": -0.193378,
                "lat": 51.492063,
                "natpan_id": "940GZZLUECT",
                "name": "Earl's Court Underground Station"
            },
            {
                "lon": -0.182658,
                "lat": 51.494316,
                "natpan_id": "940GZZLUGTR",
                "name": "Gloucester Road Underground Station"
            },
            {
                "lon": -0.174138,
                "lat": 51.494094,
                "natpan_id": "940GZZLUSKS",
                "name": "South Kensington Underground Station"
            },
            {
                "lon": -0.156377,
                "lat": 51.49227,
                "natpan_id": "940GZZLUSSQ",
                "name": "Sloane Square Underground Station"
            },
            {
                "lon": 51.496359,
                "lat": -0.143102
            },
            {
                "lon": -0.133608,
                "lat": 51.499544,
                "natpan_id": "940GZZLUSJP",
                "name": "St. James's Park Underground Station"
            },
            {
                "lon": 51.50132,
                "lat": -0.124861
            },
            {
                "lon": -0.122666,
                "lat": 51.507058,
                "natpan_id": "940GZZLUEMB",
                "name": "Embankment Underground Station"
            },
            {
                "lon": -0.11426,
                "lat": 51.511006,
                "natpan_id": "940GZZLUTMP",
                "name": "Temple Underground Station"
            },
            {
                "lon": 51.511581,
                "lat": -0.103659
            },
            {
                "lon": -0.094009,
                "lat": 51.512117,
                "natpan_id": "940GZZLUMSH",
                "name": "Mansion House Underground Station"
            },
            {
                "lon": 51.51151,
                "lat": -0.090432
            },
            {
                "lon": -0.085969,
                "lat": 51.5107,
                "natpan_id": "940GZZLUMMT",
                "name": "Monument Underground Station"
            },
            {
                "lon": -0.076546,
                "lat": 51.509971,
                "natpan_id": "940GZZLUTWH",
                "name": "Tower Hill Underground Station"
            },
            {
                "lon": -0.072384,
                "lat": 51.515037,
                "natpan_id": "940GZZLUADE",
                "name": "Aldgate East Underground Station"
            },
            {
                "lon": 51.519518,
                "lat": -0.059971
            },
            {
                "lon": -0.046596,
                "lat": 51.521858,
                "natpan_id": "940GZZLUSGN",
                "name": "Stepney Green Underground Station"
            },
            {
                "lon": -0.03364,
                "lat": 51.525122,
                "natpan_id": "940GZZLUMED",
                "name": "Mile End Underground Station"
            },
            {
                "lon": -0.025128,
                "lat": 51.52694,
                "natpan_id": "940GZZLUBWR",
                "name": "Bow Road Underground Station"
            },
            {
                "lon": -0.011538,
                "lat": 51.524839,
                "natpan_id": "940GZZLUBBB",
                "name": "Bromley-by-Bow Underground Station"
            },
            {
                "lon": 51.528136,
                "lat": 0.005055
            },
            {
                "lon": 0.017451,
                "lat": 51.531341,
                "natpan_id": "940GZZLUPLW",
                "name": "Plaistow Underground Station"
            },
            {
                "lon": 0.035263,
                "lat": 51.53534,
                "natpan_id": "940GZZLUUPK",
                "name": "Upton Park Underground Station"
            },
            {
                "lon": 0.051186,
                "lat": 51.538948,
                "natpan_id": "940GZZLUEHM",
                "name": "East Ham Underground Station"
            },
            {
                "lon": 51.539321,
                "lat": 0.081053
            },
            {
                "lon": 0.10153,
                "lat": 51.538372,
                "natpan_id": "940GZZLUUPY",
                "name": "Upney Underground Station"
            },
            {
                "lon": 0.127016,
                "lat": 51.540331,
                "natpan_id": "940GZZLUBEC",
                "name": "Becontree Underground Station"
            },
            {
                "lon": 0.147527,
                "lat": 51.541639,
                "natpan_id": "940GZZLUDGY",
                "name": "Dagenham Heathway Underground Station"
            },
            {
                "lon": 0.166017,
                "lat": 51.544096,
                "natpan_id": "940GZZLUDGE",
                "name": "Dagenham East Underground Station"
            },
            {
                "lon": 0.19864,
                "lat": 51.549775,
                "natpan_id": "940GZZLUEPK",
                "name": "Elm Park Underground Station"
            },
            {
                "lon": 0.219116,
                "lat": 51.554093,
                "natpan_id": "940GZZLUHCH",
                "name": "Hornchurch Underground Station"
            },
            {
                "lon": 0.235809,
                "lat": 51.55856,
                "natpan_id": "940GZZLUUPB",
                "name": "Upminster Bridge Underground Station"
            },
            {
                "lon": 51.559063,
                "lat": 0.250882
            }
        ]
    },
    {
        "line": "district",
        "locations": [
            {
                "lon": 51.559063,
                "lat": 0.250882
            },
            {
                "lon": 0.235809,
                "lat": 51.55856,
                "natpan_id": "940GZZLUUPB",
                "name": "Upminster Bridge Underground Station"
            },
            {
                "lon": 0.219116,
                "lat": 51.554093,
                "natpan_id": "940GZZLUHCH",
                "name": "Hornchurch Underground Station"
            },
            {
                "lon": 0.19864,
                "lat": 51.549775,
                "natpan_id": "940GZZLUEPK",
                "name": "Elm Park Underground Station"
            },
            {
                "lon": 0.166017,
                "lat": 51.544096,
                "natpan_id": "940GZZLUDGE",
                "name": "Dagenham East Underground Station"
            },
            {
                "lon": 0.147527,
                "lat": 51.541639,
                "natpan_id": "940GZZLUDGY",
                "name": "Dagenham Heathway Underground Station"
            },
            {
                "lon": 0.127016,
                "lat": 51.540331,
                "natpan_id": "940GZZLUBEC",
                "name": "Becontree Underground Station"
            },
            {
                "lon": 0.10153,
                "lat": 51.538372,
                "natpan_id": "940GZZLUUPY",
                "name": "Upney Underground Station"
            },
            {
                "lon": 51.539321,
                "lat": 0.081053
            },
            {
                "lon": 0.051186,
                "lat": 51.538948,
                "natpan_id": "940GZZLUEHM",
                "name": "East Ham Underground Station"
            },
            {
                "lon": 0.035263,
                "lat": 51.53534,
                "natpan_id": "940GZZLUUPK",
                "name": "Upton Park Underground Station"
            },
            {
                "lon": 0.017451,
                "lat": 51.531341,
                "natpan_id": "940GZZLUPLW",
                "name": "Plaistow Underground Station"
            },
            {
                "lon": 51.528136,
                "lat": 0.005055
            },
            {
                "lon": -0.011538,
                "lat": 51.524839,
                "natpan_id": "940GZZLUBBB",
                "name": "Bromley-by-Bow Underground Station"
            },
            {
                "lon": -0.025128,
                "lat": 51.52694,
                "natpan_id": "940GZZLUBWR",
                "name": "Bow Road Underground Station"
            },
            {
                "lon": -0.03364,
                "lat": 51.525122,
                "natpan_id": "940GZZLUMED",
                "name": "Mile End Underground Station"
            },
            {
                "lon": -0.046596,
                "lat": 51.521858,
                "natpan_id": "940GZZLUSGN",
                "name": "Stepney Green Underground Station"
            },
            {
                "lon": 51.519518,
                "lat": -0.059971
            },
            {
                "lon": -0.072384,
                "lat": 51.515037,
                "natpan_id": "940GZZLUADE",
                "name": "Aldgate East Underground Station"
            },
            {
                "lon": -0.076546,
                "lat": 51.509971,
                "natpan_id": "940GZZLUTWH",
                "name": "Tower Hill Underground Station"
            },
            {
                "lon": -0.085969,
                "lat": 51.5107,
                "natpan_id": "940GZZLUMMT",
                "name": "Monument Underground Station"
            },
            {
                "lon": 51.51151,
                "lat": -0.090432
            },
            {
                "lon": -0.094009,
                "lat": 51.512117,
                "natpan_id": "940GZZLUMSH",
                "name": "Mansion House Underground Station"
            },
            {
                "lon": 51.511581,
                "lat": -0.103659
            },
            {
                "lon": -0.11426,
                "lat": 51.511006,
                "natpan_id": "940GZZLUTMP",
                "name": "Temple Underground Station"
            },
            {
                "lon": -0.122666,
                "lat": 51.507058,
                "natpan_id": "940GZZLUEMB",
                "name": "Embankment Underground Station"
            },
            {
                "lon": 51.50132,
                "lat": -0.124861
            },
            {
                "lon": -0.133608,
                "lat": 51.499544,
                "natpan_id": "940GZZLUSJP",
                "name": "St. James's Park Underground Station"
            },
            {
                "lon": 51.496359,
                "lat": -0.143102
            },
            {
                "lon": -0.156377,
                "lat": 51.49227,
                "natpan_id": "940GZZLUSSQ",
                "name": "Sloane Square Underground Station"
            },
            {
                "lon": -0.174138,
                "lat": 51.494094,
                "natpan_id": "940GZZLUSKS",
                "name": "South Kensington Underground Station"
            },
            {
                "lon": -0.182658,
                "lat": 51.494316,
                "natpan_id": "940GZZLUGTR",
                "name": "Gloucester Road Underground Station"
            },
            {
                "lon": -0.193378,
                "lat": 51.492063,
                "natpan_id": "940GZZLUECT",
                "name": "Earl's Court Underground Station"
            },
            {
                "lon": 51.487268,
                "lat": -0.195599
            },
            {
                "lon": -0.195422,
                "lat": 51.480081,
                "natpan_id": "940GZZLUFBY",
                "name": "Fulham Broadway Underground Station"
            },
            {
                "lon": -0.20117,
                "lat": 51.475277,
                "natpan_id": "940GZZLUPSG",
                "name": "Parsons Green Underground Station"
            },
            {
                "lon": -0.208731,
                "lat": 51.468262,
                "natpan_id": "940GZZLUPYB",
                "name": "Putney Bridge Underground Station"
            },
            {
                "lon": -0.211,
                "lat": 51.459205,
                "natpan_id": "940GZZLUEPY",
                "name": "East Putney Underground Station"
            },
            {
                "lon": -0.206602,
                "lat": 51.445073,
                "natpan_id": "940GZZLUSFS",
                "name": "Southfields Underground Station"
            },
            {
                "lon": -0.199719,
                "lat": 51.434573,
                "natpan_id": "940GZZLUWIP",
                "name": "Wimbledon Park Underground Station"
            },
            {
                "lon": 51.421207,
                "lat": -0.206573
            }
        ]
    },
    {
        "line": "district",
        "locations": [
            {
                "lon": 51.421207,
                "lat": -0.206573
            },
            {
                "lon": -0.199719,
                "lat": 51.434573,
                "natpan_id": "940GZZLUWIP",
                "name": "Wimbledon Park Underground Station"
            },
            {
                "lon": -0.206602,
                "lat": 51.445073,
                "natpan_id": "940GZZLUSFS",
                "name": "Southfields Underground Station"
            },
            {
                "lon": -0.211,
                "lat": 51.459205,
                "natpan_id": "940GZZLUEPY",
                "name": "East Putney Underground Station"
            },
            {
                "lon": -0.208731,
                "lat": 51.468262,
                "natpan_id": "940GZZLUPYB",
                "name": "Putney Bridge Underground Station"
            },
            {
                "lon": -0.20117,
                "lat": 51.475277,
                "natpan_id": "940GZZLUPSG",
                "name": "Parsons Green Underground Station"
            },
            {
                "lon": -0.195422,
                "lat": 51.480081,
                "natpan_id": "940GZZLUFBY",
                "name": "Fulham Broadway Underground Station"
            },
            {
                "lon": 51.487268,
                "lat": -0.195599
            },
            {
                "lon": -0.193378,
                "lat": 51.492063,
                "natpan_id": "940GZZLUECT",
                "name": "Earl's Court Underground Station"
            },
            {
                "lon": -0.182658,
                "lat": 51.494316,
                "natpan_id": "940GZZLUGTR",
                "name": "Gloucester Road Underground Station"
            },
            {
                "lon": -0.174138,
                "lat": 51.494094,
                "natpan_id": "940GZZLUSKS",
                "name": "South Kensington Underground Station"
            },
            {
                "lon": -0.156377,
                "lat": 51.49227,
                "natpan_id": "940GZZLUSSQ",
                "name": "Sloane Square Underground Station"
            },
            {
                "lon": 51.496359,
                "lat": -0.143102
            },
            {
                "lon": -0.133608,
                "lat": 51.499544,
                "natpan_id": "940GZZLUSJP",
                "name": "St. James's Park Underground Station"
            },
            {
                "lon": 51.50132,
                "lat": -0.124861
            },
            {
                "lon": -0.122666,
                "lat": 51.507058,
                "natpan_id": "940GZZLUEMB",
                "name": "Embankment Underground Station"
            },
            {
                "lon": -0.11426,
                "lat": 51.511006,
                "natpan_id": "940GZZLUTMP",
                "name": "Temple Underground Station"
            },
            {
                "lon": 51.511581,
                "lat": -0.103659
            },
            {
                "lon": -0.094009,
                "lat": 51.512117,
                "natpan_id": "940GZZLUMSH",
                "name": "Mansion House Underground Station"
            },
            {
                "lon": 51.51151,
                "lat": -0.090432
            },
            {
                "lon": -0.085969,
                "lat": 51.5107,
                "natpan_id": "940GZZLUMMT",
                "name": "Monument Underground Station"
            },
            {
                "lon": -0.076546,
                "lat": 51.509971,
                "natpan_id": "940GZZLUTWH",
                "name": "Tower Hill Underground Station"
            },
            {
                "lon": -0.072384,
                "lat": 51.515037,
                "natpan_id": "940GZZLUADE",
                "name": "Aldgate East Underground Station"
            },
            {
                "lon": 51.519518,
                "lat": -0.059971
            },
            {
                "lon": -0.046596,
                "lat": 51.521858,
                "natpan_id": "940GZZLUSGN",
                "name": "Stepney Green Underground Station"
            },
            {
                "lon": -0.03364,
                "lat": 51.525122,
                "natpan_id": "940GZZLUMED",
                "name": "Mile End Underground Station"
            },
            {
                "lon": -0.025128,
                "lat": 51.52694,
                "natpan_id": "940GZZLUBWR",
                "name": "Bow Road Underground Station"
            },
            {
                "lon": -0.011538,
                "lat": 51.524839,
                "natpan_id": "940GZZLUBBB",
                "name": "Bromley-by-Bow Underground Station"
            },
            {
                "lon": 51.528136,
                "lat": 0.005055
            },
            {
                "lon": 0.017451,
                "lat": 51.531341,
                "natpan_id": "940GZZLUPLW",
                "name": "Plaistow Underground Station"
            },
            {
                "lon": 0.035263,
                "lat": 51.53534,
                "natpan_id": "940GZZLUUPK",
                "name": "Upton Park Underground Station"
            },
            {
                "lon": 0.051186,
                "lat": 51.538948,
                "natpan_id": "940GZZLUEHM",
                "name": "East Ham Underground Station"
            },
            {
                "lon": 51.539321,
                "lat": 0.081053
            },
            {
                "lon": 0.10153,
                "lat": 51.538372,
                "natpan_id": "940GZZLUUPY",
                "name": "Upney Underground Station"
            },
            {
                "lon": 0.127016,
                "lat": 51.540331,
                "natpan_id": "940GZZLUBEC",
                "name": "Becontree Underground Station"
            },
            {
                "lon": 0.147527,
                "lat": 51.541639,
                "natpan_id": "940GZZLUDGY",
                "name": "Dagenham Heathway Underground Station"
            },
            {
                "lon": 0.166017,
                "lat": 51.544096,
                "natpan_id": "940GZZLUDGE",
                "name": "Dagenham East Underground Station"
            },
            {
                "lon": 0.19864,
                "lat": 51.549775,
                "natpan_id": "940GZZLUEPK",
                "name": "Elm Park Underground Station"
            },
            {
                "lon": 0.219116,
                "lat": 51.554093,
                "natpan_id": "940GZZLUHCH",
                "name": "Hornchurch Underground Station"
            },
            {
                "lon": 0.235809,
                "lat": 51.55856,
                "natpan_id": "940GZZLUUPB",
                "name": "Upminster Bridge Underground Station"
            },
            {
                "lon": 51.559063,
                "lat": 0.250882
            }
        ]
    },
    {
        "line": "district",
        "locations": [
            {
                "lon": 51.497624,
                "lat": -0.210015
            },
            {
                "lon": -0.193378,
                "lat": 51.492063,
                "natpan_id": "940GZZLUECT",
                "name": "Earl's Court Underground Station"
            },
            {
                "lon": -0.182658,
                "lat": 51.494316,
                "natpan_id": "940GZZLUGTR",
                "name": "Gloucester Road Underground Station"
            },
            {
                "lon": -0.174138,
                "lat": 51.494094,
                "natpan_id": "940GZZLUSKS",
                "name": "South Kensington Underground Station"
            },
            {
                "lon": -0.156377,
                "lat": 51.49227,
                "natpan_id": "940GZZLUSSQ",
                "name": "Sloane Square Underground Station"
            },
            {
                "lon": 51.496359,
                "lat": -0.143102
            },
            {
                "lon": -0.133608,
                "lat": 51.499544,
                "natpan_id": "940GZZLUSJP",
                "name": "St. James's Park Underground Station"
            },
            {
                "lon": 51.50132,
                "lat": -0.124861
            },
            {
                "lon": -0.122666,
                "lat": 51.507058,
                "natpan_id": "940GZZLUEMB",
                "name": "Embankment Underground Station"
            },
            {
                "lon": -0.11426,
                "lat": 51.511006,
                "natpan_id": "940GZZLUTMP",
                "name": "Temple Underground Station"
            },
            {
                "lon": 51.511581,
                "lat": -0.103659
            },
            {
                "lon": -0.094009,
                "lat": 51.512117,
                "natpan_id": "940GZZLUMSH",
                "name": "Mansion House Underground Station"
            },
            {
                "lon": 51.51151,
                "lat": -0.090432
            },
            {
                "lon": -0.085969,
                "lat": 51.5107,
                "natpan_id": "940GZZLUMMT",
                "name": "Monument Underground Station"
            },
            {
                "lon": -0.076546,
                "lat": 51.509971,
                "natpan_id": "940GZZLUTWH",
                "name": "Tower Hill Underground Station"
            },
            {
                "lon": -0.072384,
                "lat": 51.515037,
                "natpan_id": "940GZZLUADE",
                "name": "Aldgate East Underground Station"
            },
            {
                "lon": 51.519518,
                "lat": -0.059971
            },
            {
                "lon": -0.046596,
                "lat": 51.521858,
                "natpan_id": "940GZZLUSGN",
                "name": "Stepney Green Underground Station"
            },
            {
                "lon": -0.03364,
                "lat": 51.525122,
                "natpan_id": "940GZZLUMED",
                "name": "Mile End Underground Station"
            },
            {
                "lon": -0.025128,
                "lat": 51.52694,
                "natpan_id": "940GZZLUBWR",
                "name": "Bow Road Underground Station"
            },
            {
                "lon": -0.011538,
                "lat": 51.524839,
                "natpan_id": "940GZZLUBBB",
                "name": "Bromley-by-Bow Underground Station"
            },
            {
                "lon": 51.528136,
                "lat": 0.005055
            },
            {
                "lon": 0.017451,
                "lat": 51.531341,
                "natpan_id": "940GZZLUPLW",
                "name": "Plaistow Underground Station"
            },
            {
                "lon": 0.035263,
                "lat": 51.53534,
                "natpan_id": "940GZZLUUPK",
                "name": "Upton Park Underground Station"
            },
            {
                "lon": 0.051186,
                "lat": 51.538948,
                "natpan_id": "940GZZLUEHM",
                "name": "East Ham Underground Station"
            },
            {
                "lon": 51.539321,
                "lat": 0.081053
            },
            {
                "lon": 0.10153,
                "lat": 51.538372,
                "natpan_id": "940GZZLUUPY",
                "name": "Upney Underground Station"
            },
            {
                "lon": 0.127016,
                "lat": 51.540331,
                "natpan_id": "940GZZLUBEC",
                "name": "Becontree Underground Station"
            },
            {
                "lon": 0.147527,
                "lat": 51.541639,
                "natpan_id": "940GZZLUDGY",
                "name": "Dagenham Heathway Underground Station"
            },
            {
                "lon": 0.166017,
                "lat": 51.544096,
                "natpan_id": "940GZZLUDGE",
                "name": "Dagenham East Underground Station"
            },
            {
                "lon": 0.19864,
                "lat": 51.549775,
                "natpan_id": "940GZZLUEPK",
                "name": "Elm Park Underground Station"
            },
            {
                "lon": 0.219116,
                "lat": 51.554093,
                "natpan_id": "940GZZLUHCH",
                "name": "Hornchurch Underground Station"
            },
            {
                "lon": 0.235809,
                "lat": 51.55856,
                "natpan_id": "940GZZLUUPB",
                "name": "Upminster Bridge Underground Station"
            },
            {
                "lon": 51.559063,
                "lat": 0.250882
            }
        ]
    },
    {
        "line": "district",
        "locations": [
            {
                "lon": -0.167832,
                "lat": 51.519858,
                "natpan_id": "940GZZLUERC",
                "name": "Edgware Road (Circle Line) Underground Station"
            },
            {
                "lon": 51.516581,
                "lat": -0.175689
            },
            {
                "lon": -0.187938,
                "lat": 51.512284,
                "natpan_id": "940GZZLUBWT",
                "name": "Bayswater Underground Station"
            },
            {
                "lon": -0.196104,
                "lat": 51.509128,
                "natpan_id": "940GZZLUNHG",
                "name": "Notting Hill Gate Underground Station"
            },
            {
                "lon": -0.192792,
                "lat": 51.501055,
                "natpan_id": "940GZZLUHSK",
                "name": "High Street Kensington Underground Station"
            },
            {
                "lon": -0.193378,
                "lat": 51.492063,
                "natpan_id": "940GZZLUECT",
                "name": "Earl's Court Underground Station"
            },
            {
                "lon": -0.206636,
                "lat": 51.490459,
                "natpan_id": "940GZZLUWKN",
                "name": "West Kensington Underground Station"
            },
            {
                "lon": -0.213427,
                "lat": 51.490311,
                "natpan_id": "940GZZLUBSC",
                "name": "Barons Court Underground Station"
            },
            {
                "lon": 51.4923,
                "lat": -0.22362
            },
            {
                "lon": -0.235881,
                "lat": 51.494122,
                "natpan_id": "940GZZLURVP",
                "name": "Ravenscourt Park Underground Station"
            },
            {
                "lon": -0.245704,
                "lat": 51.494917,
                "natpan_id": "940GZZLUSFB",
                "name": "Stamford Brook Underground Station"
            },
            {
                "lon": -0.254555,
                "lat": 51.495148,
                "natpan_id": "940GZZLUTNG",
                "name": "Turnham Green Underground Station"
            },
            {
                "lon": -0.267972,
                "lat": 51.494627,
                "natpan_id": "940GZZLUCWP",
                "name": "Chiswick Park Underground Station"
            },
            {
                "lon": -0.280462,
                "lat": 51.503057,
                "natpan_id": "940GZZLUACT",
                "name": "Acton Town Underground Station"
            },
            {
                "lon": -0.288265,
                "lat": 51.51014,
                "natpan_id": "940GZZLUECM",
                "name": "Ealing Common Underground Station"
            },
            {
                "lon": 51.515017,
                "lat": -0.301457
            }
        ]
    },
    {
        "line": "district",
        "locations": [
            {
                "lon": -0.167832,
                "lat": 51.519858,
                "natpan_id": "940GZZLUERC",
                "name": "Edgware Road (Circle Line) Underground Station"
            },
            {
                "lon": 51.516581,
                "lat": -0.175689
            },
            {
                "lon": -0.187938,
                "lat": 51.512284,
                "natpan_id": "940GZZLUBWT",
                "name": "Bayswater Underground Station"
            },
            {
                "lon": -0.196104,
                "lat": 51.509128,
                "natpan_id": "940GZZLUNHG",
                "name": "Notting Hill Gate Underground Station"
            },
            {
                "lon": -0.192792,
                "lat": 51.501055,
                "natpan_id": "940GZZLUHSK",
                "name": "High Street Kensington Underground Station"
            },
            {
                "lon": -0.193378,
                "lat": 51.492063,
                "natpan_id": "940GZZLUECT",
                "name": "Earl's Court Underground Station"
            },
            {
                "lon": -0.206636,
                "lat": 51.490459,
                "natpan_id": "940GZZLUWKN",
                "name": "West Kensington Underground Station"
            },
            {
                "lon": -0.213427,
                "lat": 51.490311,
                "natpan_id": "940GZZLUBSC",
                "name": "Barons Court Underground Station"
            },
            {
                "lon": 51.4923,
                "lat": -0.22362
            },
            {
                "lon": -0.235881,
                "lat": 51.494122,
                "natpan_id": "940GZZLURVP",
                "name": "Ravenscourt Park Underground Station"
            },
            {
                "lon": -0.245704,
                "lat": 51.494917,
                "natpan_id": "940GZZLUSFB",
                "name": "Stamford Brook Underground Station"
            },
            {
                "lon": -0.254555,
                "lat": 51.495148,
                "natpan_id": "940GZZLUTNG",
                "name": "Turnham Green Underground Station"
            },
            {
                "lon": 51.491803,
                "lat": -0.275267
            },
            {
                "lon": 51.477058,
                "lat": -0.285241
            },
            {
                "lon": 51.463237,
                "lat": -0.301336
            }
        ]
    },
    {
        "line": "district",
        "locations": [
            {
                "lon": 51.463237,
                "lat": -0.301336
            },
            {
                "lon": 51.477058,
                "lat": -0.285241
            },
            {
                "lon": 51.491803,
                "lat": -0.275267
            },
            {
                "lon": -0.254555,
                "lat": 51.495148,
                "natpan_id": "940GZZLUTNG",
                "name": "Turnham Green Underground Station"
            },
            {
                "lon": -0.245704,
                "lat": 51.494917,
                "natpan_id": "940GZZLUSFB",
                "name": "Stamford Brook Underground Station"
            },
            {
                "lon": -0.235881,
                "lat": 51.494122,
                "natpan_id": "940GZZLURVP",
                "name": "Ravenscourt Park Underground Station"
            },
            {
                "lon": 51.4923,
                "lat": -0.22362
            },
            {
                "lon": -0.213427,
                "lat": 51.490311,
                "natpan_id": "940GZZLUBSC",
                "name": "Barons Court Underground Station"
            },
            {
                "lon": -0.206636,
                "lat": 51.490459,
                "natpan_id": "940GZZLUWKN",
                "name": "West Kensington Underground Station"
            },
            {
                "lon": -0.193378,
                "lat": 51.492063,
                "natpan_id": "940GZZLUECT",
                "name": "Earl's Court Underground Station"
            },
            {
                "lon": -0.192792,
                "lat": 51.501055,
                "natpan_id": "940GZZLUHSK",
                "name": "High Street Kensington Underground Station"
            },
            {
                "lon": -0.196104,
                "lat": 51.509128,
                "natpan_id": "940GZZLUNHG",
                "name": "Notting Hill Gate Underground Station"
            },
            {
                "lon": -0.187938,
                "lat": 51.512284,
                "natpan_id": "940GZZLUBWT",
                "name": "Bayswater Underground Station"
            },
            {
                "lon": 51.516581,
                "lat": -0.175689
            },
            {
                "lon": -0.167832,
                "lat": 51.519858,
                "natpan_id": "940GZZLUERC",
                "name": "Edgware Road (Circle Line) Underground Station"
            }
        ]
    },
    {
        "line": "district",
        "locations": [
            {
                "lon": -0.167832,
                "lat": 51.519858,
                "natpan_id": "940GZZLUERC",
                "name": "Edgware Road (Circle Line) Underground Station"
            },
            {
                "lon": 51.516581,
                "lat": -0.175689
            },
            {
                "lon": -0.187938,
                "lat": 51.512284,
                "natpan_id": "940GZZLUBWT",
                "name": "Bayswater Underground Station"
            },
            {
                "lon": -0.196104,
                "lat": 51.509128,
                "natpan_id": "940GZZLUNHG",
                "name": "Notting Hill Gate Underground Station"
            },
            {
                "lon": -0.192792,
                "lat": 51.501055,
                "natpan_id": "940GZZLUHSK",
                "name": "High Street Kensington Underground Station"
            },
            {
                "lon": -0.193378,
                "lat": 51.492063,
                "natpan_id": "940GZZLUECT",
                "name": "Earl's Court Underground Station"
            },
            {
                "lon": 51.487268,
                "lat": -0.195599
            },
            {
                "lon": -0.195422,
                "lat": 51.480081,
                "natpan_id": "940GZZLUFBY",
                "name": "Fulham Broadway Underground Station"
            },
            {
                "lon": -0.20117,
                "lat": 51.475277,
                "natpan_id": "940GZZLUPSG",
                "name": "Parsons Green Underground Station"
            },
            {
                "lon": -0.208731,
                "lat": 51.468262,
                "natpan_id": "940GZZLUPYB",
                "name": "Putney Bridge Underground Station"
            },
            {
                "lon": -0.211,
                "lat": 51.459205,
                "natpan_id": "940GZZLUEPY",
                "name": "East Putney Underground Station"
            },
            {
                "lon": -0.206602,
                "lat": 51.445073,
                "natpan_id": "940GZZLUSFS",
                "name": "Southfields Underground Station"
            },
            {
                "lon": -0.199719,
                "lat": 51.434573,
                "natpan_id": "940GZZLUWIP",
                "name": "Wimbledon Park Underground Station"
            },
            {
                "lon": 51.421207,
                "lat": -0.206573
            }
        ]
    },
    {
        "line": "district",
        "locations": [
            {
                "lon": 51.421207,
                "lat": -0.206573
            },
            {
                "lon": -0.199719,
                "lat": 51.434573,
                "natpan_id": "940GZZLUWIP",
                "name": "Wimbledon Park Underground Station"
            },
            {
                "lon": -0.206602,
                "lat": 51.445073,
                "natpan_id": "940GZZLUSFS",
                "name": "Southfields Underground Station"
            },
            {
                "lon": -0.211,
                "lat": 51.459205,
                "natpan_id": "940GZZLUEPY",
                "name": "East Putney Underground Station"
            },
            {
                "lon": -0.208731,
                "lat": 51.468262,
                "natpan_id": "940GZZLUPYB",
                "name": "Putney Bridge Underground Station"
            },
            {
                "lon": -0.20117,
                "lat": 51.475277,
                "natpan_id": "940GZZLUPSG",
                "name": "Parsons Green Underground Station"
            },
            {
                "lon": -0.195422,
                "lat": 51.480081,
                "natpan_id": "940GZZLUFBY",
                "name": "Fulham Broadway Underground Station"
            },
            {
                "lon": 51.487268,
                "lat": -0.195599
            },
            {
                "lon": -0.193378,
                "lat": 51.492063,
                "natpan_id": "940GZZLUECT",
                "name": "Earl's Court Underground Station"
            },
            {
                "lon": -0.192792,
                "lat": 51.501055,
                "natpan_id": "940GZZLUHSK",
                "name": "High Street Kensington Underground Station"
            },
            {
                "lon": -0.196104,
                "lat": 51.509128,
                "natpan_id": "940GZZLUNHG",
                "name": "Notting Hill Gate Underground Station"
            },
            {
                "lon": -0.187938,
                "lat": 51.512284,
                "natpan_id": "940GZZLUBWT",
                "name": "Bayswater Underground Station"
            },
            {
                "lon": 51.516581,
                "lat": -0.175689
            },
            {
                "lon": -0.167832,
                "lat": 51.519858,
                "natpan_id": "940GZZLUERC",
                "name": "Edgware Road (Circle Line) Underground Station"
            }
        ]
    },
    {
        "line": "district",
        "locations": [
            {
                "lon": -0.167832,
                "lat": 51.519858,
                "natpan_id": "940GZZLUERC",
                "name": "Edgware Road (Circle Line) Underground Station"
            },
            {
                "lon": 51.516581,
                "lat": -0.175689
            },
            {
                "lon": -0.187938,
                "lat": 51.512284,
                "natpan_id": "940GZZLUBWT",
                "name": "Bayswater Underground Station"
            },
            {
                "lon": -0.196104,
                "lat": 51.509128,
                "natpan_id": "940GZZLUNHG",
                "name": "Notting Hill Gate Underground Station"
            },
            {
                "lon": -0.192792,
                "lat": 51.501055,
                "natpan_id": "940GZZLUHSK",
                "name": "High Street Kensington Underground Station"
            },
            {
                "lon": -0.193378,
                "lat": 51.492063,
                "natpan_id": "940GZZLUECT",
                "name": "Earl's Court Underground Station"
            },
            {
                "lon": 51.497624,
                "lat": -0.210015
            }
        ]
    },
    {
        "line": "district",
        "locations": [
            {
                "lon": 51.497624,
                "lat": -0.210015
            },
            {
                "lon": -0.193378,
                "lat": 51.492063,
                "natpan_id": "940GZZLUECT",
                "name": "Earl's Court Underground Station"
            },
            {
                "lon": -0.192792,
                "lat": 51.501055,
                "natpan_id": "940GZZLUHSK",
                "name": "High Street Kensington Underground Station"
            },
            {
                "lon": -0.196104,
                "lat": 51.509128,
                "natpan_id": "940GZZLUNHG",
                "name": "Notting Hill Gate Underground Station"
            },
            {
                "lon": -0.187938,
                "lat": 51.512284,
                "natpan_id": "940GZZLUBWT",
                "name": "Bayswater Underground Station"
            },
            {
                "lon": 51.516581,
                "lat": -0.175689
            },
            {
                "lon": -0.167832,
                "lat": 51.519858,
                "natpan_id": "940GZZLUERC",
                "name": "Edgware Road (Circle Line) Underground Station"
            }
        ]
    }
]