[
    {
        "line": "dlr",
        "locations": [
            {
                "location": {
                    "location_type": "Junction",
                    "lon": 51.464665,
                    "lat": -0.012874
                }
            },
            {
                "location": {
                    "location_type": "Station",
                    "natpan_id": "940GZZDLELV",
                    "name": "Elverson Road DLR Station",
                    "lon": -0.016728,
                    "lat": 51.469074
                }
            },
            {
                "location": {
                    "location_type": "Station",
                    "natpan_id": "940GZZDLDEP",
                    "name": "Deptford Bridge DLR Station",
                    "lon": -0.022438,
                    "lat": 51.474215
                }
            },
            {
                "location": {
                    "location_type": "Junction",
                    "lon": 51.478087,
                    "lat": -0.013673
                }
            },
            {
                "location": {
                    "location_type": "Junction",
                    "lon": 51.481671,
                    "lat": -0.01081
                }
            },
            {
                "location": {
                    "location_type": "Station",
                    "natpan_id": "940GZZDLISL",
                    "name": "Island Gardens DLR Station",
                    "lon": -0.010139,
                    "lat": 51.487811
                }
            },
            {
                "location": {
                    "location_type": "Station",
                    "natpan_id": "940GZZDLMUD",
                    "name": "Mudchute DLR Station",
                    "lon": -0.014738,
                    "lat": 51.490704
                }
            },
            {
                "location": {
                    "location_type": "Station",
                    "natpan_id": "940GZZDLCLA",
                    "name": "Crossharbour DLR Station",
                    "lon": -0.014606,
                    "lat": 51.495728
                }
            },
            {
                "location": {
                    "location_type": "Station",
                    "natpan_id": "940GZZDLSOQ",
                    "name": "South Quay DLR Station",
                    "lon": -0.016133,
                    "lat": 51.500053
                }
            },
            {
                "location": {
                    "location_type": "Station",
                    "natpan_id": "940GZZDLHEQ",
                    "name": "Heron Quays DLR Station",
                    "lon": -0.021421,
                    "lat": 51.503379
                }
            },
            {
                "location": {
                    "location_type": "Junction",
                    "lon": 51.504838,
                    "lat": -0.020997
                }
            },
            {
                "location": {
                    "location_type": "Station",
                    "natpan_id": "940GZZDLWIQ",
                    "name": "West India Quay DLR Station",
                    "lon": -0.020311,
                    "lat": 51.50703
                }
            },
            {
                "location": {
                    "location_type": "Station",
                    "natpan_id": "940GZZDLPOP",
                    "name": "Poplar DLR Station",
                    "lon": -0.017384,
                    "lat": 51.507744
                }
            },
            {
                "location": {
                    "location_type": "Station",
                    "natpan_id": "940GZZDLALL",
                    "name": "All Saints DLR Station",
                    "lon": -0.013135,
                    "lat": 51.511
                }
            },
            {
                "location": {
                    "location_type": "Station",
                    "natpan_id": "940GZZDLLDP",
                    "name": "Langdon Park DLR Station",
                    "lon": -0.01415,
                    "lat": 51.515172
                }
            },
            {
                "location": {
                    "location_type": "Station",
                    "natpan_id": "940GZZDLDEV",
                    "name": "Devons Road DLR Station",
                    "lon": -0.017615,
                    "lat": 51.522667
                }
            },
            {
                "location": {
                    "location_type": "Station",
                    "natpan_id": "940GZZDLBOW",
                    "name": "Bow Church DLR Station",
                    "lon": -0.020936,
                    "lat": 51.527858
                }
            },
            {
                "location": {
                    "location_type": "Station",
                    "natpan_id": "940GZZDLPUD",
                    "name": "Pudding Mill Lane DLR Station",
                    "lon": -0.012755,
                    "lat": 51.534302
                }
            },
            {
                "location": {
                    "location_type": "Junction",
                    "lon": 51.541758,
                    "lat": -0.003287
                }
            }
        ]
    },
    {
        "line": "dlr",
        "locations": [
            {
                "location": {
                    "location_type": "Junction",
                    "lon": 51.541758,
                    "lat": -0.003287
                }
            },
            {
                "location": {
                    "location_type": "Station",
                    "natpan_id": "940GZZDLPUD",
                    "name": "Pudding Mill Lane DLR Station",
                    "lon": -0.012755,
                    "lat": 51.534302
                }
            },
            {
                "location": {
                    "location_type": "Station",
                    "natpan_id": "940GZZDLBOW",
                    "name": "Bow Church DLR Station",
                    "lon": -0.020936,
                    "lat": 51.527858
                }
            },
            {
                "location": {
                    "location_type": "Station",
                    "natpan_id": "940GZZDLDEV",
                    "name": "Devons Road DLR Station",
                    "lon": -0.017615,
                    "lat": 51.522667
                }
            },
            {
                "location": {
                    "location_type": "Station",
                    "natpan_id": "940GZZDLLDP",
                    "name": "Langdon Park DLR Station",
                    "lon": -0.01415,
                    "lat": 51.515172
                }
            },
            {
                "location": {
                    "location_type": "Station",
                    "natpan_id": "940GZZDLALL",
                    "name": "All Saints DLR Station",
                    "lon": -0.013135,
                    "lat": 51.511
                }
            },
            {
                "location": {
                    "location_type": "Station",
                    "natpan_id": "940GZZDLPOP",
                    "name": "Poplar DLR Station",
                    "lon": -0.017384,
                    "lat": 51.507744
                }
            },
            {
                "location": {
                    "location_type": "Station",
                    "natpan_id": "940GZZDLWIQ",
                    "name": "West India Quay DLR Station",
                    "lon": -0.020311,
                    "lat": 51.50703
                }
            },
            {
                "location": {
                    "location_type": "Junction",
                    "lon": 51.504838,
                    "lat": -0.020997
                }
            },
            {
                "location": {
                    "location_type": "Station",
                    "natpan_id": "940GZZDLHEQ",
                    "name": "Heron Quays DLR Station",
                    "lon": -0.021421,
                    "lat": 51.503379
                }
            },
            {
                "location": {
                    "location_type": "Station",
                    "natpan_id": "940GZZDLSOQ",
                    "name": "South Quay DLR Station",
                    "lon": -0.016133,
                    "lat": 51.500053
                }
            },
            {
                "location": {
                    "location_type": "Station",
                    "natpan_id": "940GZZDLCLA",
                    "name": "Crossharbour DLR Station",
                    "lon": -0.014606,
                    "lat": 51.495728
                }
            },
            {
                "location": {
                    "location_type": "Station",
                    "natpan_id": "940GZZDLMUD",
                    "name": "Mudchute DLR Station",
                    "lon": -0.014738,
                    "lat": 51.490704
                }
            },
            {
                "location": {
                    "location_type": "Station",
                    "natpan_id": "940GZZDLISL",
                    "name": "Island Gardens DLR Station",
                    "lon": -0.010139,
                    "lat": 51.487811
                }
            },
            {
                "location": {
                    "location_type": "Junction",
                    "lon": 51.481671,
                    "lat": -0.01081
                }
            },
            {
                "location": {
                    "location_type": "Junction",
                    "lon": 51.478087,
                    "lat": -0.013673
                }
            },
            {
                "location": {
                    "location_type": "Station",
                    "natpan_id": "940GZZDLDEP",
                    "name": "Deptford Bridge DLR Station",
                    "lon": -0.022438,
                    "lat": 51.474215
                }
            },
            {
                "location": {
                    "location_type": "Station",
                    "natpan_id": "940GZZDLELV",
                    "name": "Elverson Road DLR Station",
                    "lon": -0.016728,
                    "lat": 51.469074
                }
            },
            {
                "location": {
                    "location_type": "Junction",
                    "lon": 51.464665,
                    "lat": -0.012874
                }
            }
        ]
    },
    {
        "line": "dlr",
        "locations": [
            {
                "location": {
                    "location_type": "Junction",
                    "lon": 51.464665,
                    "lat": -0.012874
                }
            },
            {
                "location": {
                    "location_type": "Station",
                    "natpan_id": "940GZZDLELV",
                    "name": "Elverson Road DLR Station",
                    "lon": -0.016728,
                    "lat": 51.469074
                }
            },
            {
                "location": {
                    "location_type": "Station",
                    "natpan_id": "940GZZDLDEP",
                    "name": "Deptford Bridge DLR Station",
                    "lon": -0.022438,
                    "lat": 51.474215
                }
            },
            {
                "location": {
                    "location_type": "Junction",
                    "lon": 51.478087,
                    "lat": -0.013673
                }
            },
            {
                "location": {
                    "location_type": "Junction",
                    "lon": 51.481671,
                    "lat": -0.01081
                }
            },
            {
                "location": {
                    "location_type": "Station",
                    "natpan_id": "940GZZDLISL",
                    "name": "Island Gardens DLR Station",
                    "lon": -0.010139,
                    "lat": 51.487811
                }
            },
            {
                "location": {
                    "location_type": "Station",
                    "natpan_id": "940GZZDLMUD",
                    "name": "Mudchute DLR Station",
                    "lon": -0.014738,
                    "lat": 51.490704
                }
            },
            {
                "location": {
                    "location_type": "Station",
                    "natpan_id": "940GZZDLCLA",
                    "name": "Crossharbour DLR Station",
                    "lon": -0.014606,
                    "lat": 51.495728
                }
            },
            {
                "location": {
                    "location_type": "Station",
                    "natpan_id": "940GZZDLSOQ",
                    "name": "South Quay DLR Station",
                    "lon": -0.016133,
                    "lat": 51.500053
                }
            },
            {
                "location": {
                    "location_type": "Station",
                    "natpan_id": "940GZZDLHEQ",
                    "name": "Heron Quays DLR Station",
                    "lon": -0.021421,
                    "lat": 51.503379
                }
            },
            {
                "location": {
                    "location_type": "Junction",
                    "lon": 51.504838,
                    "lat": -0.020997
                }
            },
            {
                "location": {
                    "location_type": "Station",
                    "natpan_id": "940GZZDLWIQ",
                    "name": "West India Quay DLR Station",
                    "lon": -0.020311,
                    "lat": 51.50703
                }
            },
            {
                "location": {
                    "location_type": "Station",
                    "natpan_id": "940GZZDLWFE",
                    "name": "Westferry DLR Station",
                    "lon": -0.02675,
                    "lat": 51.509431
                }
            },
            {
                "location": {
                    "location_type": "Junction",
                    "lon": 51.512393,
                    "lat": -0.039809
                }
            },
            {
                "location": {
                    "location_type": "Junction",
                    "lon": 51.511693,
                    "lat": -0.056643
                }
            },
            {
                "location": {
                    "location_type": "Junction",
                    "lon": 51.513233,
                    "lat": -0.088515
                }
            }
        ]
    },
    {
        "line": "dlr",
        "locations": [
            {
                "location": {
                    "location_type": "Station",
                    "natpan_id": "940GZZDLBEC",
                    "name": "Beckton DLR Station",
                    "lon": 0.061453,
                    "lat": 51.514362
                }
            },
            {
                "location": {
                    "location_type": "Station",
                    "natpan_id": "940GZZDLGAL",
                    "name": "Gallions Reach DLR Station",
                    "lon": 0.071555,
                    "lat": 51.508941
                }
            },
            {
                "location": {
                    "location_type": "Station",
                    "natpan_id": "940GZZDLCYP",
                    "name": "Cyprus DLR Station",
                    "lon": 0.063925,
                    "lat": 51.508473
                }
            },
            {
                "location": {
                    "location_type": "Station",
                    "natpan_id": "940GZZDLBPK",
                    "name": "Beckton Park DLR Station",
                    "lon": 0.054932,
                    "lat": 51.508793
                }
            },
            {
                "location": {
                    "location_type": "Station",
                    "natpan_id": "940GZZDLRAL",
                    "name": "Royal Albert DLR Station",
                    "lon": 0.045935,
                    "lat": 51.508357
                }
            },
            {
                "location": {
                    "location_type": "Station",
                    "natpan_id": "940GZZDLPRE",
                    "name": "Prince Regent DLR Station",
                    "lon": 0.034158,
                    "lat": 51.509263
                }
            },
            {
                "location": {
                    "location_type": "Junction",
                    "lon": 51.509716,
                    "lat": 0.026699
                }
            },
            {
                "location": {
                    "location_type": "Junction",
                    "lon": 51.509336,
                    "lat": 0.018497
                }
            },
            {
                "location": {
                    "location_type": "Junction",
                    "lon": 51.514127,
                    "lat": 0.008101
                }
            },
            {
                "location": {
                    "location_type": "Station",
                    "natpan_id": "940GZZDLEIN",
                    "name": "East India DLR Station",
                    "lon": -0.002326,
                    "lat": 51.509359
                }
            },
            {
                "location": {
                    "location_type": "Station",
                    "natpan_id": "940GZZDLBLA",
                    "name": "Blackwall DLR Station",
                    "lon": -0.006969,
                    "lat": 51.507991
                }
            },
            {
                "location": {
                    "location_type": "Station",
                    "natpan_id": "940GZZDLPOP",
                    "name": "Poplar DLR Station",
                    "lon": -0.017384,
                    "lat": 51.507744
                }
            },
            {
                "location": {
                    "location_type": "Station",
                    "natpan_id": "940GZZDLWFE",
                    "name": "Westferry DLR Station",
                    "lon": -0.02675,
                    "lat": 51.509431
                }
            },
            {
                "location": {
                    "location_type": "Junction",
                    "lon": 51.512393,
                    "lat": -0.039809
                }
            },
            {
                "location": {
                    "location_type": "Junction",
                    "lon": 51.511693,
                    "lat": -0.056643
                }
            },
            {
                "location": {
                    "location_type": "Junction",
                    "lon": 51.510617,
                    "lat": -0.074818
                }
            }
        ]
    },
    {
        "line": "dlr",
        "locations": [
            {
                "location": {
                    "location_type": "Junction",
                    "lon": 51.510617,
                    "lat": -0.074818
                }
            },
            {
                "location": {
                    "location_type": "Junction",
                    "lon": 51.511693,
                    "lat": -0.056643
                }
            },
            {
                "location": {
                    "location_type": "Junction",
                    "lon": 51.512393,
                    "lat": -0.039809
                }
            },
            {
                "location": {
                    "location_type": "Station",
                    "natpan_id": "940GZZDLWFE",
                    "name": "Westferry DLR Station",
                    "lon": -0.02675,
                    "lat": 51.509431
                }
            },
            {
                "location": {
                    "location_type": "Station",
                    "natpan_id": "940GZZDLPOP",
                    "name": "Poplar DLR Station",
                    "lon": -0.017384,
                    "lat": 51.507744
                }
            },
            {
                "location": {
                    "location_type": "Station",
                    "natpan_id": "940GZZDLBLA",
                    "name": "Blackwall DLR Station",
                    "lon": -0.006969,
                    "lat": 51.507991
                }
            },
            {
                "location": {
                    "location_type": "Station",
                    "natpan_id": "940GZZDLEIN",
                    "name": "East India DLR Station",
                    "lon": -0.002326,
                    "lat": 51.509359
                }
            },
            {
                "location": {
                    "location_type": "Junction",
                    "lon": 51.514127,
                    "lat": 0.008101
                }
            },
            {
                "location": {
                    "location_type": "Junction",
                    "lon": 51.509336,
                    "lat": 0.018497
                }
            },
            {
                "location": {
                    "location_type": "Junction",
                    "lon": 51.509716,
                    "lat": 0.026699
                }
            },
            {
                "location": {
                    "location_type": "Station",
                    "natpan_id": "940GZZDLPRE",
                    "name": "Prince Regent DLR Station",
                    "lon": 0.034158,
                    "lat": 51.509263
                }
            },
            {
                "location": {
                    "location_type": "Station",
                    "natpan_id": "940GZZDLRAL",
                    "name": "Royal Albert DLR Station",
                    "lon": 0.045935,
                    "lat": 51.508357
                }
            },
            {
                "location": {
                    "location_type": "Station",
                    "natpan_id": "940GZZDLBPK",
                    "name": "Beckton Park DLR Station",
                    "lon": 0.054932,
                    "lat": 51.508793
                }
            },
            {
                "location": {
                    "location_type": "Station",
                    "natpan_id": "940GZZDLCYP",
                    "name": "Cyprus DLR Station",
                    "lon": 0.063925,
                    "lat": 51.508473
                }
            },
            {
                "location": {
                    "location_type": "Station",
                    "natpan_id": "940GZZDLGAL",
                    "name": "Gallions Reach DLR Station",
                    "lon": 0.071555,
                    "lat": 51.508941
                }
            },
            {
                "location": {
                    "location_type": "Station",
                    "natpan_id": "940GZZDLBEC",
                    "name": "Beckton DLR Station",
                    "lon": 0.061453,
                    "lat": 51.514362
                }
            }
        ]
    },
    {
        "line": "dlr",
        "locations": [
            {
                "location": {
                    "location_type": "Junction",
                    "lon": 51.513233,
                    "lat": -0.088515
                }
            },
            {
                "location": {
                    "location_type": "Junction",
                    "lon": 51.511693,
                    "lat": -0.056643
                }
            },
            {
                "location": {
                    "location_type": "Junction",
                    "lon": 51.512393,
                    "lat": -0.039809
                }
            },
            {
                "location": {
                    "location_type": "Station",
                    "natpan_id": "940GZZDLWFE",
                    "name": "Westferry DLR Station",
                    "lon": -0.02675,
                    "lat": 51.509431
                }
            },
            {
                "location": {
                    "location_type": "Junction",
                    "lon": 51.504838,
                    "lat": -0.020997
                }
            },
            {
                "location": {
                    "location_type": "Station",
                    "natpan_id": "940GZZDLHEQ",
                    "name": "Heron Quays DLR Station",
                    "lon": -0.021421,
                    "lat": 51.503379
                }
            },
            {
                "location": {
                    "location_type": "Station",
                    "natpan_id": "940GZZDLSOQ",
                    "name": "South Quay DLR Station",
                    "lon": -0.016133,
                    "lat": 51.500053
                }
            },
            {
                "location": {
                    "location_type": "Station",
                    "natpan_id": "940GZZDLCLA",
                    "name": "Crossharbour DLR Station",
                    "lon": -0.014606,
                    "lat": 51.495728
                }
            },
            {
                "location": {
                    "location_type": "Station",
                    "natpan_id": "940GZZDLMUD",
                    "name": "Mudchute DLR Station",
                    "lon": -0.014738,
                    "lat": 51.490704
                }
            },
            {
                "location": {
                    "location_type": "Station",
                    "natpan_id": "940GZZDLISL",
                    "name": "Island Gardens DLR Station",
                    "lon": -0.010139,
                    "lat": 51.487811
                }
            },
            {
                "location": {
                    "location_type": "Junction",
                    "lon": 51.481671,
                    "lat": -0.01081
                }
            },
            {
                "location": {
                    "location_type": "Junction",
                    "lon": 51.478087,
                    "lat": -0.013673
                }
            },
            {
                "location": {
                    "location_type": "Station",
                    "natpan_id": "940GZZDLDEP",
                    "name": "Deptford Bridge DLR Station",
                    "lon": -0.022438,
                    "lat": 51.474215
                }
            },
            {
                "location": {
                    "location_type": "Station",
                    "natpan_id": "940GZZDLELV",
                    "name": "Elverson Road DLR Station",
                    "lon": -0.016728,
                    "lat": 51.469074
                }
            },
            {
                "location": {
                    "location_type": "Junction",
                    "lon": 51.464665,
                    "lat": -0.012874
                }
            }
        ]
    },
    {
        "line": "dlr",
        "locations": [
            {
                "location": {
                    "location_type": "Junction",
                    "lon": 51.490009,
                    "lat": 0.069127
                }
            },
            {
                "location": {
                    "location_type": "Station",
                    "natpan_id": "940GZZDLKGV",
                    "name": "King George V DLR Station",
                    "lon": 0.062624,
                    "lat": 51.502003
                }
            },
            {
                "location": {
                    "location_type": "Junction",
                    "lon": 51.503416,
                    "lat": 0.048739
                }
            },
            {
                "location": {
                    "location_type": "Station",
                    "natpan_id": "940GZZDLPDK",
                    "name": "Pontoon Dock DLR Station",
                    "lon": 0.032115,
                    "lat": 51.502212
                }
            },
            {
                "location": {
                    "location_type": "Station",
                    "natpan_id": "940GZZDLWSV",
                    "name": "West Silvertown DLR Station",
                    "lon": 0.02246,
                    "lat": 51.502838
                }
            },
            {
                "location": {
                    "location_type": "Junction",
                    "lon": 51.514127,
                    "lat": 0.008101
                }
            },
            {
                "location": {
                    "location_type": "Station",
                    "natpan_id": "940GZZDLEIN",
                    "name": "East India DLR Station",
                    "lon": -0.002326,
                    "lat": 51.509359
                }
            },
            {
                "location": {
                    "location_type": "Station",
                    "natpan_id": "940GZZDLBLA",
                    "name": "Blackwall DLR Station",
                    "lon": -0.006969,
                    "lat": 51.507991
                }
            },
            {
                "location": {
                    "location_type": "Station",
                    "natpan_id": "940GZZDLPOP",
                    "name": "Poplar DLR Station",
                    "lon": -0.017384,
                    "lat": 51.507744
                }
            },
            {
                "location": {
                    "location_type": "Station",
                    "natpan_id": "940GZZDLWFE",
                    "name": "Westferry DLR Station",
                    "lon": -0.02675,
                    "lat": 51.509431
                }
            },
            {
                "location": {
                    "location_type": "Junction",
                    "lon": 51.512393,
                    "lat": -0.039809
                }
            },
            {
                "location": {
                    "location_type": "Junction",
                    "lon": 51.511693,
                    "lat": -0.056643
                }
            },
            {
                "location": {
                    "location_type": "Junction",
                    "lon": 51.513233,
                    "lat": -0.088515
                }
            }
        ]
    },
    {
        "line": "dlr",
        "locations": [
            {
                "location": {
                    "location_type": "Junction",
                    "lon": 51.513233,
                    "lat": -0.088515
                }
            },
            {
                "location": {
                    "location_type": "Junction",
                    "lon": 51.511693,
                    "lat": -0.056643
                }
            },
            {
                "location": {
                    "location_type": "Junction",
                    "lon": 51.512393,
                    "lat": -0.039809
                }
            },
            {
                "location": {
                    "location_type": "Station",
                    "natpan_id": "940GZZDLWFE",
                    "name": "Westferry DLR Station",
                    "lon": -0.02675,
                    "lat": 51.509431
                }
            },
            {
                "location": {
                    "location_type": "Station",
                    "natpan_id": "940GZZDLPOP",
                    "name": "Poplar DLR Station",
                    "lon": -0.017384,
                    "lat": 51.507744
                }
            },
            {
                "location": {
                    "location_type": "Station",
                    "natpan_id": "940GZZDLBLA",
                    "name": "Blackwall DLR Station",
                    "lon": -0.006969,
                    "lat": 51.507991
                }
            },
            {
                "location": {
                    "location_type": "Station",
                    "natpan_id": "940GZZDLEIN",
                    "name": "East India DLR Station",
                    "lon": -0.002326,
                    "lat": 51.509359
                }
            },
            {
                "location": {
                    "location_type": "Junction",
                    "lon": 51.514127,
                    "lat": 0.008101
                }
            },
            {
                "location": {
                    "location_type": "Station",
                    "natpan_id": "940GZZDLWSV",
                    "name": "West Silvertown DLR Station",
                    "lon": 0.02246,
                    "lat": 51.502838
                }
            },
            {
                "location": {
                    "location_type": "Station",
                    "natpan_id": "940GZZDLPDK",
                    "name": "Pontoon Dock DLR Station",
                    "lon": 0.032115,
                    "lat": 51.502212
                }
            },
            {
                "location": {
                    "location_type": "Junction",
                    "lon": 51.503416,
                    "lat": 0.048739
                }
            },
            {
                "location": {
                    "location_type": "Station",
                    "natpan_id": "940GZZDLKGV",
                    "name": "King George V DLR Station",
                    "lon": 0.062624,
                    "lat": 51.502003
                }
            },
            {
                "location": {
                    "location_type": "Junction",
                    "lon": 51.490009,
                    "lat": 0.069127
                }
            }
        ]
    },
    {
        "line": "dlr",
        "locations": [
            {
                "location": {
                    "location_type": "Junction",
                    "lon": 51.490009,
                    "lat": 0.069127
                }
            },
            {
                "location": {
                    "location_type": "Station",
                    "natpan_id": "940GZZDLKGV",
                    "name": "King George V DLR Station",
                    "lon": 0.062624,
                    "lat": 51.502003
                }
            },
            {
                "location": {
                    "location_type": "Junction",
                    "lon": 51.503416,
                    "lat": 0.048739
                }
            },
            {
                "location": {
                    "location_type": "Station",
                    "natpan_id": "940GZZDLPDK",
                    "name": "Pontoon Dock DLR Station",
                    "lon": 0.032115,
                    "lat": 51.502212
                }
            },
            {
                "location": {
                    "location_type": "Station",
                    "natpan_id": "940GZZDLWSV",
                    "name": "West Silvertown DLR Station",
                    "lon": 0.02246,
                    "lat": 51.502838
                }
            },
            {
                "location": {
                    "location_type": "Junction",
                    "lon": 51.514127,
                    "lat": 0.008101
                }
            },
            {
                "location": {
                    "location_type": "Station",
                    "natpan_id": "940GZZDLSTL",
                    "name": "Star Lane DLR Station",
                    "lon": 0.004156,
                    "lat": 51.520786
                }
            },
            {
                "location": {
                    "location_type": "Junction",
                    "lon": 51.527894,
                    "lat": 0.004482
                }
            },
            {
                "location": {
                    "location_type": "Station",
                    "natpan_id": "940GZZDLABR",
                    "name": "Abbey Road DLR Station",
                    "lon": 0.003737,
                    "lat": 51.531926
                }
            },
            {
                "location": {
                    "location_type": "Station",
                    "natpan_id": "940GZZDLSHS",
                    "name": "Stratford High Street DLR Station",
                    "lon": -0.001078,
                    "lat": 51.538196
                }
            },
            {
                "location": {
                    "location_type": "Junction",
                    "lon": 51.541758,
                    "lat": -0.003287
                }
            },
            {
                "location": {
                    "location_type": "Station",
                    "natpan_id": "940GZZDLSIT",
                    "name": "Stratford International DLR Station",
                    "lon": -0.009638,
                    "lat": 51.545265
                }
            }
        ]
    },
    {
        "line": "dlr",
        "locations": [
            {
                "location": {
                    "location_type": "Station",
                    "natpan_id": "940GZZDLSIT",
                    "name": "Stratford International DLR Station",
                    "lon": -0.009638,
                    "lat": 51.545265
                }
            },
            {
                "location": {
                    "location_type": "Junction",
                    "lon": 51.541758,
                    "lat": -0.003287
                }
            },
            {
                "location": {
                    "location_type": "Station",
                    "natpan_id": "940GZZDLSHS",
                    "name": "Stratford High Street DLR Station",
                    "lon": -0.001078,
                    "lat": 51.538196
                }
            },
            {
                "location": {
                    "location_type": "Station",
                    "natpan_id": "940GZZDLABR",
                    "name": "Abbey Road DLR Station",
                    "lon": 0.003737,
                    "lat": 51.531926
                }
            },
            {
                "location": {
                    "location_type": "Junction",
                    "lon": 51.527894,
                    "lat": 0.004482
                }
            },
            {
                "location": {
                    "location_type": "Station",
                    "natpan_id": "940GZZDLSTL",
                    "name": "Star Lane DLR Station",
                    "lon": 0.004156,
                    "lat": 51.520786
                }
            },
            {
                "location": {
                    "location_type": "Junction",
                    "lon": 51.514127,
                    "lat": 0.008101
                }
            },
            {
                "location": {
                    "location_type": "Station",
                    "natpan_id": "940GZZDLWSV",
                    "name": "West Silvertown DLR Station",
                    "lon": 0.02246,
                    "lat": 51.502838
                }
            },
            {
                "location": {
                    "location_type": "Station",
                    "natpan_id": "940GZZDLPDK",
                    "name": "Pontoon Dock DLR Station",
                    "lon": 0.032115,
                    "lat": 51.502212
                }
            },
            {
                "location": {
                    "location_type": "Junction",
                    "lon": 51.503416,
                    "lat": 0.048739
                }
            },
            {
                "location": {
                    "location_type": "Station",
                    "natpan_id": "940GZZDLKGV",
                    "name": "King George V DLR Station",
                    "lon": 0.062624,
                    "lat": 51.502003
                }
            },
            {
                "location": {
                    "location_type": "Junction",
                    "lon": 51.490009,
                    "lat": 0.069127
                }
            }
        ]
    }
]