[
    {
        "line": "hammersmith-city",
        "locations": [
            {
                "location": {
                    "location_type": "Junction",
                    "lon": 51.539321,
                    "lat": 0.081053
                }
            },
            {
                "location": {
                    "location_type": "Station",
                    "natpan_id": "940GZZLUEHM",
                    "name": "East Ham Underground Station",
                    "lon": 0.051186,
                    "lat": 51.538948
                }
            },
            {
                "location": {
                    "location_type": "Station",
                    "natpan_id": "940GZZLUUPK",
                    "name": "Upton Park Underground Station",
                    "lon": 0.035263,
                    "lat": 51.53534
                }
            },
            {
                "location": {
                    "location_type": "Station",
                    "natpan_id": "940GZZLUPLW",
                    "name": "Plaistow Underground Station",
                    "lon": 0.017451,
                    "lat": 51.531341
                }
            },
            {
                "location": {
                    "location_type": "Junction",
                    "lon": 51.528136,
                    "lat": 0.005055
                }
            },
            {
                "location": {
                    "location_type": "Station",
                    "natpan_id": "940GZZLUBBB",
                    "name": "Bromley-by-Bow Underground Station",
                    "lon": -0.011538,
                    "lat": 51.524839
                }
            },
            {
                "location": {
                    "location_type": "Station",
                    "natpan_id": "940GZZLUBWR",
                    "name": "Bow Road Underground Station",
                    "lon": -0.025128,
                    "lat": 51.52694
                }
            },
            {
                "location": {
                    "location_type": "Station",
                    "natpan_id": "940GZZLUMED",
                    "name": "Mile End Underground Station",
                    "lon": -0.03364,
                    "lat": 51.525122
                }
            },
            {
                "location": {
                    "location_type": "Station",
                    "natpan_id": "940GZZLUSGN",
                    "name": "Stepney Green Underground Station",
                    "lon": -0.046596,
                    "lat": 51.521858
                }
            },
            {
                "location": {
                    "location_type": "Junction",
                    "lon": 51.519518,
                    "lat": -0.059971
                }
            },
            {
                "location": {
                    "location_type": "Station",
                    "natpan_id": "940GZZLUADE",
                    "name": "Aldgate East Underground Station",
                    "lon": -0.072384,
                    "lat": 51.515037
                }
            },
            {
                "location": {
                    "location_type": "Junction",
                    "lon": 51.517372,
                    "lat": -0.083182
                }
            },
            {
                "location": {
                    "location_type": "Junction",
                    "lon": 51.518176,
                    "lat": -0.088322
                }
            },
            {
                "location": {
                    "location_type": "Station",
                    "natpan_id": "940GZZLUBBN",
                    "name": "Barbican Underground Station",
                    "lon": -0.097993,
                    "lat": 51.520275
                }
            },
            {
                "location": {
                    "location_type": "Junction",
                    "lon": 51.520252,
                    "lat": -0.104913
                }
            },
            {
                "location": {
                    "location_type": "Junction",
                    "lon": 51.530663,
                    "lat": -0.123194
                }
            },
            {
                "location": {
                    "location_type": "Station",
                    "natpan_id": "940GZZLUESQ",
                    "name": "Euston Square Underground Station",
                    "lon": -0.135829,
                    "lat": 51.525604
                }
            },
            {
                "location": {
                    "location_type": "Station",
                    "natpan_id": "940GZZLUGPS",
                    "name": "Great Portland Street Underground Station",
                    "lon": -0.144262,
                    "lat": 51.52384
                }
            },
            {
                "location": {
                    "location_type": "Station",
                    "natpan_id": "940GZZLUBST",
                    "name": "Baker Street Underground Station",
                    "lon": -0.15713,
                    "lat": 51.522883
                }
            },
            {
                "location": {
                    "location_type": "Station",
                    "natpan_id": "940GZZLUERC",
                    "name": "Edgware Road (Circle Line) Underground Station",
                    "lon": -0.167832,
                    "lat": 51.519858
                }
            },
            {
                "location": {
                    "location_type": "Junction",
                    "lon": 51.518187,
                    "lat": -0.178306
                }
            },
            {
                "location": {
                    "location_type": "Station",
                    "natpan_id": "940GZZLURYO",
                    "name": "Royal Oak Underground Station",
                    "lon": -0.188748,
                    "lat": 51.519113
                }
            },
            {
                "location": {
                    "location_type": "Station",
                    "natpan_id": "940GZZLUWSP",
                    "name": "Westbourne Park Underground Station",
                    "lon": -0.201065,
                    "lat": 51.52111
                }
            },
            {
                "location": {
                    "location_type": "Station",
                    "natpan_id": "940GZZLULAD",
                    "name": "Ladbroke Grove Underground Station",
                    "lon": -0.210391,
                    "lat": 51.517449
                }
            },
            {
                "location": {
                    "location_type": "Station",
                    "natpan_id": "940GZZLULRD",
                    "name": "Latimer Road Underground Station",
                    "lon": -0.217799,
                    "lat": 51.513389
                }
            },
            {
                "location": {
                    "location_type": "Station",
                    "natpan_id": "940GZZLUWLA",
                    "name": "Wood Lane Underground Station",
                    "lon": -0.22453,
                    "lat": 51.509669
                }
            },
            {
                "location": {
                    "location_type": "Station",
                    "natpan_id": "940GZZLUSBM",
                    "name": "Shepherd's Bush Market Underground Station",
                    "lon": -0.226375,
                    "lat": 51.505579
                }
            },
            {
                "location": {
                    "location_type": "Station",
                    "natpan_id": "940GZZLUGHK",
                    "name": "Goldhawk Road Underground Station",
                    "lon": -0.226715,
                    "lat": 51.502005
                }
            },
            {
                "location": {
                    "location_type": "Junction",
                    "lon": 51.49339,
                    "lat": -0.225033
                }
            }
        ]
    },
    {
        "line": "hammersmith-city",
        "locations": [
            {
                "location": {
                    "location_type": "Junction",
                    "lon": 51.49339,
                    "lat": -0.225033
                }
            },
            {
                "location": {
                    "location_type": "Station",
                    "natpan_id": "940GZZLUGHK",
                    "name": "Goldhawk Road Underground Station",
                    "lon": -0.226715,
                    "lat": 51.502005
                }
            },
            {
                "location": {
                    "location_type": "Station",
                    "natpan_id": "940GZZLUSBM",
                    "name": "Shepherd's Bush Market Underground Station",
                    "lon": -0.226375,
                    "lat": 51.505579
                }
            },
            {
                "location": {
                    "location_type": "Station",
                    "natpan_id": "940GZZLUWLA",
                    "name": "Wood Lane Underground Station",
                    "lon": -0.22453,
                    "lat": 51.509669
                }
            },
            {
                "location": {
                    "location_type": "Station",
                    "natpan_id": "940GZZLULRD",
                    "name": "Latimer Road Underground Station",
                    "lon": -0.217799,
                    "lat": 51.513389
                }
            },
            {
                "location": {
                    "location_type": "Station",
                    "natpan_id": "940GZZLULAD",
                    "name": "Ladbroke Grove Underground Station",
                    "lon": -0.210391,
                    "lat": 51.517449
                }
            },
            {
                "location": {
                    "location_type": "Station",
                    "natpan_id": "940GZZLUWSP",
                    "name": "Westbourne Park Underground Station",
                    "lon": -0.201065,
                    "lat": 51.52111
                }
            },
            {
                "location": {
                    "location_type": "Station",
                    "natpan_id": "940GZZLURYO",
                    "name": "Royal Oak Underground Station",
                    "lon": -0.188748,
                    "lat": 51.519113
                }
            },
            {
                "location": {
                    "location_type": "Junction",
                    "lon": 51.518187,
                    "lat": -0.178306
                }
            },
            {
                "location": {
                    "location_type": "Station",
                    "natpan_id": "940GZZLUERC",
                    "name": "Edgware Road (Circle Line) Underground Station",
                    "lon": -0.167832,
                    "lat": 51.519858
                }
            },
            {
                "location": {
                    "location_type": "Station",
                    "natpan_id": "940GZZLUBST",
                    "name": "Baker Street Underground Station",
                    "lon": -0.15713,
                    "lat": 51.522883
                }
            },
            {
                "location": {
                    "location_type": "Station",
                    "natpan_id": "940GZZLUGPS",
                    "name": "Great Portland Street Underground Station",
                    "lon": -0.144262,
                    "lat": 51.52384
                }
            },
            {
                "location": {
                    "location_type": "Station",
                    "natpan_id": "940GZZLUESQ",
                    "name": "Euston Square Underground Station",
                    "lon": -0.135829,
                    "lat": 51.525604
                }
            },
            {
                "location": {
                    "location_type": "Junction",
                    "lon": 51.530663,
                    "lat": -0.123194
                }
            },
            {
                "location": {
                    "location_type": "Junction",
                    "lon": 51.520252,
                    "lat": -0.104913
                }
            },
            {
                "location": {
                    "location_type": "Station",
                    "natpan_id": "940GZZLUBBN",
                    "name": "Barbican Underground Station",
                    "lon": -0.097993,
                    "lat": 51.520275
                }
            },
            {
                "location": {
                    "location_type": "Junction",
                    "lon": 51.518176,
                    "lat": -0.088322
                }
            },
            {
                "location": {
                    "location_type": "Junction",
                    "lon": 51.517372,
                    "lat": -0.083182
                }
            },
            {
                "location": {
                    "location_type": "Station",
                    "natpan_id": "940GZZLUADE",
                    "name": "Aldgate East Underground Station",
                    "lon": -0.072384,
                    "lat": 51.515037
                }
            },
            {
                "location": {
                    "location_type": "Junction",
                    "lon": 51.519518,
                    "lat": -0.059971
                }
            },
            {
                "location": {
                    "location_type": "Station",
                    "natpan_id": "940GZZLUSGN",
                    "name": "Stepney Green Underground Station",
                    "lon": -0.046596,
                    "lat": 51.521858
                }
            },
            {
                "location": {
                    "location_type": "Station",
                    "natpan_id": "940GZZLUMED",
                    "name": "Mile End Underground Station",
                    "lon": -0.03364,
                    "lat": 51.525122
                }
            },
            {
                "location": {
                    "location_type": "Station",
                    "natpan_id": "940GZZLUBWR",
                    "name": "Bow Road Underground Station",
                    "lon": -0.025128,
                    "lat": 51.52694
                }
            },
            {
                "location": {
                    "location_type": "Station",
                    "natpan_id": "940GZZLUBBB",
                    "name": "Bromley-by-Bow Underground Station",
                    "lon": -0.011538,
                    "lat": 51.524839
                }
            },
            {
                "location": {
                    "location_type": "Junction",
                    "lon": 51.528136,
                    "lat": 0.005055
                }
            },
            {
                "location": {
                    "location_type": "Station",
                    "natpan_id": "940GZZLUPLW",
                    "name": "Plaistow Underground Station",
                    "lon": 0.017451,
                    "lat": 51.531341
                }
            },
            {
                "location": {
                    "location_type": "Station",
                    "natpan_id": "940GZZLUUPK",
                    "name": "Upton Park Underground Station",
                    "lon": 0.035263,
                    "lat": 51.53534
                }
            },
            {
                "location": {
                    "location_type": "Station",
                    "natpan_id": "940GZZLUEHM",
                    "name": "East Ham Underground Station",
                    "lon": 0.051186,
                    "lat": 51.538948
                }
            },
            {
                "location": {
                    "location_type": "Junction",
                    "lon": 51.539321,
                    "lat": 0.081053
                }
            }
        ]
    }
]