[
    {
        "line": "hammersmith-city",
        "locations": [
            {
                "lon": 51.539321,
                "lat": 0.081053
            },
            {
                "lon": 0.051186,
                "lat": 51.538948,
                "natpan_id": "940GZZLUEHM",
                "name": "East Ham Underground Station"
            },
            {
                "lon": 0.035263,
                "lat": 51.53534,
                "natpan_id": "940GZZLUUPK",
                "name": "Upton Park Underground Station"
            },
            {
                "lon": 0.017451,
                "lat": 51.531341,
                "natpan_id": "940GZZLUPLW",
                "name": "Plaistow Underground Station"
            },
            {
                "lon": 51.528136,
                "lat": 0.005055
            },
            {
                "lon": -0.011538,
                "lat": 51.524839,
                "natpan_id": "940GZZLUBBB",
                "name": "Bromley-by-Bow Underground Station"
            },
            {
                "lon": -0.025128,
                "lat": 51.52694,
                "natpan_id": "940GZZLUBWR",
                "name": "Bow Road Underground Station"
            },
            {
                "lon": -0.03364,
                "lat": 51.525122,
                "natpan_id": "940GZZLUMED",
                "name": "Mile End Underground Station"
            },
            {
                "lon": -0.046596,
                "lat": 51.521858,
                "natpan_id": "940GZZLUSGN",
                "name": "Stepney Green Underground Station"
            },
            {
                "lon": 51.519518,
                "lat": -0.059971
            },
            {
                "lon": -0.072384,
                "lat": 51.515037,
                "natpan_id": "940GZZLUADE",
                "name": "Aldgate East Underground Station"
            },
            {
                "lon": 51.517372,
                "lat": -0.083182
            },
            {
                "lon": 51.518176,
                "lat": -0.088322
            },
            {
                "lon": -0.097993,
                "lat": 51.520275,
                "natpan_id": "940GZZLUBBN",
                "name": "Barbican Underground Station"
            },
            {
                "lon": 51.520252,
                "lat": -0.104913
            },
            {
                "lon": 51.530663,
                "lat": -0.123194
            },
            {
                "lon": -0.135829,
                "lat": 51.525604,
                "natpan_id": "940GZZLUESQ",
                "name": "Euston Square Underground Station"
            },
            {
                "lon": -0.144262,
                "lat": 51.52384,
                "natpan_id": "940GZZLUGPS",
                "name": "Great Portland Street Underground Station"
            },
            {
                "lon": -0.15713,
                "lat": 51.522883,
                "natpan_id": "940GZZLUBST",
                "name": "Baker Street Underground Station"
            },
            {
                "lon": -0.167832,
                "lat": 51.519858,
                "natpan_id": "940GZZLUERC",
                "name": "Edgware Road (Circle Line) Underground Station"
            },
            {
                "lon": 51.518187,
                "lat": -0.178306
            },
            {
                "lon": -0.188748,
                "lat": 51.519113,
                "natpan_id": "940GZZLURYO",
                "name": "Royal Oak Underground Station"
            },
            {
                "lon": -0.201065,
                "lat": 51.52111,
                "natpan_id": "940GZZLUWSP",
                "name": "Westbourne Park Underground Station"
            },
            {
                "lon": -0.210391,
                "lat": 51.517449,
                "natpan_id": "940GZZLULAD",
                "name": "Ladbroke Grove Underground Station"
            },
            {
                "lon": -0.217799,
                "lat": 51.513389,
                "natpan_id": "940GZZLULRD",
                "name": "Latimer Road Underground Station"
            },
            {
                "lon": -0.22453,
                "lat": 51.509669,
                "natpan_id": "940GZZLUWLA",
                "name": "Wood Lane Underground Station"
            },
            {
                "lon": -0.226375,
                "lat": 51.505579,
                "natpan_id": "940GZZLUSBM",
                "name": "Shepherd's Bush Market Underground Station"
            },
            {
                "lon": -0.226715,
                "lat": 51.502005,
                "natpan_id": "940GZZLUGHK",
                "name": "Goldhawk Road Underground Station"
            },
            {
                "lon": 51.493535,
                "lat": -0.225013
            }
        ]
    },
    {
        "line": "hammersmith-city",
        "locations": [
            {
                "lon": 51.493535,
                "lat": -0.225013
            },
            {
                "lon": -0.226715,
                "lat": 51.502005,
                "natpan_id": "940GZZLUGHK",
                "name": "Goldhawk Road Underground Station"
            },
            {
                "lon": -0.226375,
                "lat": 51.505579,
                "natpan_id": "940GZZLUSBM",
                "name": "Shepherd's Bush Market Underground Station"
            },
            {
                "lon": -0.22453,
                "lat": 51.509669,
                "natpan_id": "940GZZLUWLA",
                "name": "Wood Lane Underground Station"
            },
            {
                "lon": -0.217799,
                "lat": 51.513389,
                "natpan_id": "940GZZLULRD",
                "name": "Latimer Road Underground Station"
            },
            {
                "lon": -0.210391,
                "lat": 51.517449,
                "natpan_id": "940GZZLULAD",
                "name": "Ladbroke Grove Underground Station"
            },
            {
                "lon": -0.201065,
                "lat": 51.52111,
                "natpan_id": "940GZZLUWSP",
                "name": "Westbourne Park Underground Station"
            },
            {
                "lon": -0.188748,
                "lat": 51.519113,
                "natpan_id": "940GZZLURYO",
                "name": "Royal Oak Underground Station"
            },
            {
                "lon": 51.518187,
                "lat": -0.178306
            },
            {
                "lon": -0.167832,
                "lat": 51.519858,
                "natpan_id": "940GZZLUERC",
                "name": "Edgware Road (Circle Line) Underground Station"
            },
            {
                "lon": -0.15713,
                "lat": 51.522883,
                "natpan_id": "940GZZLUBST",
                "name": "Baker Street Underground Station"
            },
            {
                "lon": -0.144262,
                "lat": 51.52384,
                "natpan_id": "940GZZLUGPS",
                "name": "Great Portland Street Underground Station"
            },
            {
                "lon": -0.135829,
                "lat": 51.525604,
                "natpan_id": "940GZZLUESQ",
                "name": "Euston Square Underground Station"
            },
            {
                "lon": 51.530663,
                "lat": -0.123194
            },
            {
                "lon": 51.520252,
                "lat": -0.104913
            },
            {
                "lon": -0.097993,
                "lat": 51.520275,
                "natpan_id": "940GZZLUBBN",
                "name": "Barbican Underground Station"
            },
            {
                "lon": 51.518176,
                "lat": -0.088322
            },
            {
                "lon": 51.517372,
                "lat": -0.083182
            },
            {
                "lon": -0.072384,
                "lat": 51.515037,
                "natpan_id": "940GZZLUADE",
                "name": "Aldgate East Underground Station"
            },
            {
                "lon": 51.519518,
                "lat": -0.059971
            },
            {
                "lon": -0.046596,
                "lat": 51.521858,
                "natpan_id": "940GZZLUSGN",
                "name": "Stepney Green Underground Station"
            },
            {
                "lon": -0.03364,
                "lat": 51.525122,
                "natpan_id": "940GZZLUMED",
                "name": "Mile End Underground Station"
            },
            {
                "lon": -0.025128,
                "lat": 51.52694,
                "natpan_id": "940GZZLUBWR",
                "name": "Bow Road Underground Station"
            },
            {
                "lon": -0.011538,
                "lat": 51.524839,
                "natpan_id": "940GZZLUBBB",
                "name": "Bromley-by-Bow Underground Station"
            },
            {
                "lon": 51.528136,
                "lat": 0.005055
            },
            {
                "lon": 0.017451,
                "lat": 51.531341,
                "natpan_id": "940GZZLUPLW",
                "name": "Plaistow Underground Station"
            },
            {
                "lon": 0.035263,
                "lat": 51.53534,
                "natpan_id": "940GZZLUUPK",
                "name": "Upton Park Underground Station"
            },
            {
                "lon": 0.051186,
                "lat": 51.538948,
                "natpan_id": "940GZZLUEHM",
                "name": "East Ham Underground Station"
            },
            {
                "lon": 51.539321,
                "lat": 0.081053
            }
        ]
    }
]